CityCode,CountryCode,Latitude,Longitude,cityName
AAA,PF,-16.645,-144.4916667,Anaa
AAB,AU,,,Arrabury
AAC,EG,31.07333333,33.83583333,Al Arish
AAE,DZ,36.82222222,7.809444444,Annaba
AAF,US,29.7275,-84.97277778,Apalachicola
AAH,DE,,,Aachen/Maastricht
AAI,BR,,,Arraias
AAJ,SR,,,Awaradam
AAK,KI,,,Aranuka
AAL,DK,57.092778,9.849167,Aalborg
AAM,ZA,,,Mala Mala
AAN,AE,24.26166667,55.60916667,Al Ain
AAO,VE,37.7475,-96.77888889,Anaco
AAQ,RU,45.00166667,37.34833333,Anapa
AAR,DK,56.304167,10.619167,Aarhus
AAS,ID,37.35805556,-84.69083333,Apalapsili
AAT,CN,58.42833333,12.71111111,Altay
AAU,WS,,,Asau
AAV,PH,,,Alah
AAX,BR,-18.43944444,-45.03444444,Araxa
AAY,YE,16.19333333,52.17416667,Al Ghaydah
ABA,RU,53.74166667,91.385,Abakan
ABD,IR,30.37111111,48.22833333,Abadan
ABE,US,40.65222222,-74.55972222,Allentown/Bethl
ABF,KI,,,Abaiang
ABG,AU,,,Abingdon
ABH,AU,-22.35333333,146.5833333,Alpha
ABI,US,32.41111111,-98.31833333,Abilene
ABJ,CI,5.261386,-3.926294,Abidjan
ABK,ET,6.730555556,44.22861111,Kabri Dar
ABL,US,,,Ambler
ABM,AU,-9.049166667,142.4594444,Bamaga
ABN,SR,,,Albina
ABO,CI,,,Aboisso
ABP,PG,,,Atkamba
ABQ,US,35.049492,-106.625122,Albuquerque
ABR,US,45.44888889,-97.57833333,Aberdeen
ABS,EG,22.37583333,31.61166667,Abu Simbel
ABT,SA,20.29583333,41.63388889,Al-Baha
ABU,ID,,,Atambua
ABV,NG,9.006667,7.263056,Abuja
ABW,PG,,,Abau
ABX,AU,-35.93222222,146.9580556,Albury
ABY,US,31.53527778,-83.80555556,Albany
ABZ,GB,57.201944,-2.197778,Aberdeen
ACA,MX,16.75694444,-98.24638889,Acapulco
ACB,US,44.98833333,-84.80166667,Bellaire
ACC,GH,5.605186,-0.166786,Accra
ACD,CO,,,Acandi
ACE,ES,28.94527778,-12.395,Lanzarote
ACH,CH,47.485,9.561944444,Altenrhein
ACI,GB,,,Alderney
ACK,US,41.25305556,-69.93972222,Nantucket
ACL,CO,,,Aguaclara
ACM,CO,,,Arica
ACN,MX,29.335,-100.8966667,Ciudad Acuna
ACO,CH,,,Ascona
ACR,CO,-0.599444444,-71.60194444,Araracuara
ACS,RU,,,Achinsk
ACT,US,31.61111111,-96.76972222,Waco
ACU,PA,,,Achutupo
ACV,US,40.97805556,-123.8913889,Arcata/Eureka
ADA,TR,36.98194444,35.28027778,Adana
ADD,ET,8.977889,38.799319,Addis Ababa
ADE,YE,12.82888889,45.02972222,Aden
ADF,TR,37.763889,38.277778,Adiyaman
ADG,US,41.8675,-83.92277778,Adrian
ADH,RU,34.80416667,-95.32888889,Aldan
ADI,NA,-21.53333333,14.98333333,Arandis
ADK,US,51.87777778,-175.3541667,Adak Island
ADL,AU,-34.945,138.530556,Adelaide
ADM,US,34.30416667,-96.97944444,Ardmore
ADN,CO,,,Andes
ADO,AU,,,Andamooka
ADP,LK,8.3,80.47861111,Anuradhapura
ADQ,US,57.74972222,-151.5063889,Kodiak
ADR,US,,,Andrews
ADT,US,39.83972222,-100.9577778,Ada
ADU,IR,38.32666667,48.42416667,Ardabil
ADV,GB,,,Andover
ADW,US,38.81083333,-75.13305556,Camp Springs
ADY,ZA,,,Alldays
ADZ,CO,12.58361111,-80.28888889,San Andres Island
AEA,KI,,,Abemama Atoll
AEG,ID,35.145,-105.205,Aek Godang
AEH,TD,13.84694444,20.84861111,Abecher
AEK,PG,,,Aseki
AEL,US,43.68138889,-92.63277778,Albert Lea
AEO,MR,16.71666667,-8.366666667,Aioun El Atrouss
AER,RU,43.445,39.94833333,Sochi
AES,NO,62.5625,6.119722222,Alesund
AET,US,,,Allakaket
AEX,US,,,Alexandria Louisiana
AEY,IS,65.65861111,-17.92777778,Akureyri
AFA,AR,-33.41138889,-67.59722222,San Rafael
AFD,ZA,,,Port Alfred
AFI,CO,,,Amalfi
AFL,BR,-8.133611111,-55.895,Alta Floresta
AFN,US,42.805,-71.99722222,Jaffrey
AFO,US,42.70861111,-109.0580556,Afton
AFR,PG,,,Afore
AFT,SB,,,Afutara
AFY,TR,38.73388889,30.59527778,Afyon
AGA,MA,30.325,-8.586944444,Agadir
AGD,ID,,,Anggi
AGE,DE,,,Wangerooge
AGF,FR,44.17472222,0.590555556,Agen
AGG,PG,,,Angoram
AGH,SE,56.29111111,12.855,Helsingborg
AGI,SR,,,Wageningen
AGJ,JP,26.59277778,127.2402778,Aguni
AGK,PG,,,Kagua
AGL,PG,,,Wanigela
AGM,GL,,,Angmagssalik
AGN,US,,,Angoon
AGO,US,33.22722222,-92.78305556,Magnolia
AGP,ES,36.6749,-4.499106,Malaga
AGQ,GR,38.60277778,21.35,Agrinion
AGR,IN,27.15,77.96666667,Agra
AGS,US,33.46638889,-81.96083333,Augusta
AGT,PY,-24.54444444,-53.15638889,Ciudad del Este
AGU,MX,21.70527778,-101.6822222,Aguascalientes
AGV,VE,9.553333333,-68.76277778,Acarigua
AGW,AU,,,Agnew
AGX,IN,,,Agatti Island
AGY,AU,-15.36305556,128.4513889,Argyle Downs
AGZ,ZA,-28.72083333,18.8175,Aggeneys
AHB,SA,18.24027778,42.65638889,Abha
AHC,US,40.26583333,-119.8494444,Herlong
AHH,US,45.28111111,-91.62472222,Amery
AHI,ID,,,Amahai
AHL,GY,,,Aishalton
AHN,US,33.94833333,-82.67388889,Athens
AHO,IT,40.63111111,8.288611111,Alghero
AHS,HN,,,Ahuas
AHT,US,,,Amchitka
AHU,MA,35.17972222,-2.16,Al Hoceima
AHY,MG,,,Ambatolahy
AHZ,FR,,,Alpe D'Huez
AIA,US,42.05305556,-101.1963889,Alliance
AIB,US,46.40638889,4.020833333,Anita Bay
AIC,MH,,,Airok
AID,US,40.10861111,-84.38722222,Anderson
AIE,PG,,,Aiome
AIF,BR,-21.36,-49.54694444,Assis
AIG,CF,45.15388889,-88.88944444,Yalinga
AII,DJ,,,Alisabieh
AIK,US,33.64916667,-80.315,Aiken
AIL,PA,,,Ailigandi
AIM,MH,,,Ailuk Island
AIN,US,,,Wainwright
AIO,US,,,Atlantic
AIP,MH,,,Ailinglapalap Island
AIR,BR,,,Aripuana
AIS,KI,,,Arorae Island
AIT,CK,-17.16833333,-158.2333333,Aitutaki
AIU,CK,-18.03333333,-157.875,Atiu Island
AIV,US,33.10638889,-87.80222222,Aliceville
AIY,US,39.4575,-73.42305556,Atlantic City
AIZ,US,38.09583333,-91.45055556,Kaiser/Lake Ozark
AJA,FR,41.92388889,8.8025,Ajaccio
AJF,SA,,,Al-Jouf
AJI,TR,,,Agri
AJJ,MR,19.73333333,-13.61666667,Akjoujt
AJL,IN,23.74583333,92.80277778,Aizawl
AJN,KM,-11.86916667,44.42944444,Anjouan
AJO,YE,29.785,40.09944444,Aljouf
AJR,SE,65.59027778,19.28194444,Arvidsjaur
AJS,MX,,,Abreojos
AJU,BR,-9.014722222,-36.92666667,Aracaju
AJY,NE,16.96222222,7.990277778,Agades
AKA,CN,52.22055556,-173.7938889,Ankang
AKB,US,,,Atka
AKD,IN,20.69833333,77.0575,Akola
AKE,GA,,,Akieni
AKF,LY,24.17694444,23.31527778,Kufrah
AKG,PG,,,Anguganak
AKI,US,60.90277778,-160.7694444,Akiak
AKJ,JP,43.67083333,142.4475,Asahikawa
AKK,US,56.93861111,-153.8175,Akhiok
AKL,NZ,-37.008056,174.791667,Auckland
AKM,TD,,,Zakouma
AKN,US,58.67638889,-155.3513889,King Salmon
AKO,US,40.17555556,-102.7780556,Akron
AKP,US,68.13333333,-150.2566667,Anaktuvuk Pass
AKQ,ID,,,Astraksetra
AKR,NG,7.25,5.304166667,Akure
AKS,SB,,,Auki
AKT,CY,34.59027778,32.98777778,Akrotiri
AKU,CN,,,Aksu
AKV,CA,36.77305556,-97.33027778,Akulivik
AKX,KZ,50.24583333,57.20666667,Aktobe
AKY,MM,20.1325,92.8725,Sittwe
ALA,KZ,43.352072,77.040508,Almaty
ALB,US,42.74888889,-72.19805556,Albany
ALC,ES,38.28222222,-0.541944444,Alicante
ALD,PE,-10.31666667,-68.66666667,Alerta
ALE,US,,,Alpine
ALF,NO,69.97611111,23.37166667,Alta
ALG,DZ,36.691014,3.215408,Algiers
ALH,AU,-33.05666667,117.8088889,Albany
ALI,US,27.74083333,-97.97305556,Alice
ALJ,NA,-27.42694444,16.53416667,Alexander Bay
ALK,ET,,,Asela
ALL,IT,44.04583333,8.125555556,Albenga
ALM,US,32.83972222,-104.0094444,Alamogordo
ALN,US,38.88972222,-89.95416667,Alton
ALO,US,42.55694444,-91.59972222,Waterloo
ALP,SY,36.17972222,37.22611111,Aleppo
ALQ,BR,,,Alegrete
ALR,NZ,,,Alexandra
ALS,US,37.43472222,-104.1336111,Alamosa
ALT,BR,,,Alenquer
ALU,SO,,,Alula
ALW,US,,,Walla Walla
ALX,US,32.91472222,-84.03722222,Alexander City
ALY,EG,30.91805556,29.69555556,Alexandria
ALZ,US,,,Alitak
AMA,US,35.16972222,-100.1741667,Amarillo
AMB,MG,-12.81666667,48.98333333,Ambilobe
AMC,TD,11.03333333,20.28333333,Am Timan
AMD,IN,23.07111111,72.62638889,Ahmedabad
AME,MZ,,,Alto Molocue
AMF,PG,,,Ama
AMG,PG,31.53583333,-81.49361111,Amboin
AMH,ET,6.028611111,37.58388889,Arba Mintch
AMI,ID,-7.438055556,116.0994444,Mataram
AMJ,BR,-15.81611111,-39.33277778,Almenara
AML,PA,,,Puerto Armuellas
AMM,JO,31.7225,35.993333,Amman
AMN,US,43.32194444,-83.31222222,Alma
AMO,TD,,,Mao
AMP,MG,,,Ampanihy
AMQ,ID,-2.293055556,128.0894444,Ambon
AMR,MH,,,Arno
AMS,NL,52.308614,4.763889,Amsterdam
AMT,AU,,,Amata
AMU,PG,,,Amanab
AMV,RU,,,Amderma
AMW,US,41.99194444,-92.37833333,Ames
AMX,AU,,,Ammaroo
AMY,MG,,,Ambatomainty
AMZ,NZ,-36.97027778,174.9733333,Ardmore
ANA,US,,,Anaheim
ANB,US,33.58805556,-84.14194444,Anniston
ANC,US,61.17416667,-148.0038889,Anchorage
AND,US,34.49444444,-81.29083333,Anderson
ANE,FR,47.56027778,-0.287777778,Angers
ANF,CL,-22.55555556,-69.555,Antofagasta
ANG,FR,45.72944444,0.218888889,Angouleme
ANH,SB,,,Anuha Island
ANI,US,61.58138889,-158.4572222,Aniak
ANJ,CG,-1.15,13.81666667,Zanaga
ANK,TR,39.9575,32.67472222,Ankara
ANL,AO,,,Andulo
ANM,MG,,,Antalaha
ANN,US,,,Annette Island
ANO,MZ,,,Angoche
ANP,US,,,Annapolis
ANQ,US,41.63944444,-84.91666667,Angola
ANR,BE,51.18944444,4.460277778,Antwerp
ANS,PE,-12.29138889,-72.63527778,Andahuaylas
ANT,AT,,,Saint Anton
ANU,AG,17.13666667,-60.2075,Antigua
ANV,US,62.64722222,-159.81,Anvik
ANW,US,42.57916667,-98.00722222,Ainsworth
ANX,NO,69.2925,16.14416667,Andenes
ANY,US,,,Anthony
ANZ,AU,,,Angus Downs
AOA,PG,,,Aroa
AOB,PG,,,Annanberg
AOC,DE,50.98166667,12.50611111,Altenburg
AOD,TD,,,Abou Deia
AOG,CN,,,Anshan
AOH,US,40.70722222,-83.97305556,Lima
AOI,IT,43.616111,13.362222,Ancona
AOJ,JP,,,Aomori
AOK,GR,35.42111111,27.14583333,Karpathos
AOL,AR,-28.31194444,-56.84777778,Paso de los Libres
AON,PG,,,Arona
AOO,US,40.29611111,-77.68,Altoona
AOR,MY,6.194444444,100.4008333,Alor Setar
AOS,US,,,Amook
AOU,LA,14.8,106.8166667,Attopeu
APB,BO,-13.26444444,-67.58805556,Apolo
APC,US,38.21305556,-121.7194444,Napa
APE,PE,,,San Juan Aposento
APF,US,26.15222222,-80.22444444,Naples
APH,US,,,Bowling Green
API,CO,,,Apiay
APK,PF,-14.42638889,-145.585,Apataki
APL,MZ,-14.9,39.28333333,Nampula
APN,US,45.07805556,-82.43972222,Alpena
APO,CO,,,Apartado
APP,PG,,,Asapa
APQ,BR,,,Arapiraca
APR,PG,,,April River
APS,BR,-15.6375,-47.07194444,Anapolis
APT,US,,,Jasper
APU,BR,-22.38777778,-50.615,Apucarana
APV,US,34.57527778,-116.8138889,Apple Valley
APW,WS,-12.17055556,-170.0030556,Apia
APX,BR,,,Arapongas
APY,BR,-8.916388889,-44.04944444,Alto Parnaiba
APZ,AR,,,Zapala
AQA,BR,-20.19555556,-47.85972222,Araraquara
AQG,CN,,,Anqing
AQI,SA,28.335,46.12472222,Qaisumah
AQJ,JO,29.61138889,35.01805556,Aqaba
AQM,BR,,,Ariquemes
AQP,PE,,,Arequipa
AQS,FJ,,,Saqani
AQY,US,,,Alyeska
ARB,US,,,Ann Arbor
ARC,US,,,Arctic Village
ARD,ID,,,Alor Island
ARE,PR,,,Arecibo
ARF,CO,,,Acaricuara
ARG,US,36.12444444,-89.075,Walnut Ridge
ARH,RU,64.6,40.71833333,Arkhangelsk
ARI,CL,-17.65138889,-69.66138889,Arica
ARJ,ID,,,Arso
ARK,TZ,-2.632222222,36.62027778,Arusha
ARL,BF,11.58333333,1.483333333,Arly
ARM,AU,-29.47166667,151.6166667,Armidale
ARO,CO,,,Arboletas
ARP,PG,,,Aragip
ARQ,CO,,,Arauquita
ARR,AR,-44.98333333,-69.2,Alto Rio Senguerr
ARS,BR,-14.10055556,-51.75916667,Aragarcas
ART,US,43.99166667,-75.97833333,Watertown
ARU,BR,-20.85583333,-49.57361111,Aracatuba
ARV,US,45.92777778,-88.26916667,Minocqua
ARW,RO,46.17638889,21.26194444,Arad
ARX,US,,,Asbury Park
ARY,AU,-36.69055556,142.9886111,Ararat
ARZ,AO,-6.783333333,12.86666667,N'Zeto
ASA,ER,13.06666667,42.63333333,Assab
ASB,TM,37.986944,58.360833,Ashgabat
ASC,BO,,,Ascension
ASD,BS,24.70027778,-76.20055556,Andros Town
ASE,US,39.22305556,-105.1313889,Aspen
ASF,RU,46.28333333,48.005,Astrakhan
ASG,NZ,-42.09666667,171.7966667,Ashburton
ASH,US,42.78166667,-70.48527778,Nashua
ASI,SH,-6.030555556,-13.60638889,Georgetown
ASJ,JP,28.43083333,129.7125,Amami O-Shima
ASK,CI,6.905833333,-4.636111111,Yamoussoukro
ASL,US,,,Marshall
ASM,ER,15.291853,38.910667,Asmara
ASN,US,33.56944444,-85.94888889,Talladega
ASO,ET,,,Asosa
ASP,AU,-22.19166667,133.9008333,Alice Springs
ASQ,US,,,Austin
ASR,TR,38.77027778,35.49527778,Kayseri
AST,US,46.15777778,-122.1213889,Astoria
ASU,PY,-24.75916667,-56.48333333,Asuncion
ASV,KE,,,Amboseli
ASW,EG,23.96416667,32.81972222,Aswan
ASX,US,46.54833333,-89.08111111,Ashland
ASY,US,46.02361111,-98.6475,Ashley
ASZ,PG,,,Asirim
ATA,PE,-8.6525,-76.40166667,Anta
ATB,SD,17.70944444,34.05722222,Atbara
ATC,BS,24.63361111,-74.33416667,Arthur's Town
ATD,SB,,,Atoifi
ATE,US,,,Antlers
ATF,EC,-0.788055556,-77.42527778,Ambato
ATG,PK,,,Attock
ATH,GR,37.936389,23.947222,Athens
ATI,UY,-29.60083333,-55.48916667,Artigas
ATJ,MG,-18.16527778,47.06694444,Antsirabe
ATK,US,70.46722222,-156.5644444,Atqasuk
ATL,US,33.641658,-84.446517,Atlanta
ATM,BR,-2.749166667,-51.74777778,Altamira
ATN,PG,,,Namatanai
ATO,US,,,Athens
ATP,PG,,,Aitape
ATQ,IN,31.70444444,74.80194444,Amritsar
ATR,MR,20.50083333,-12.95361111,Atar
ATS,US,32.8525,-103.5325,Artesia
ATT,US,,,Atmautluak
ATU,US,52.8325,173.1755556,Attu Island
ATV,TD,13.23333333,18.31666667,Ati
ATW,US,44.25805556,-87.48111111,Appleton
ATX,KZ,,,Atbasar
ATY,US,44.91388889,-96.84527778,Watertown
ATZ,EG,27.04638889,31.01194444,Assiut
AUA,AW,12.50111111,-69.985,Aruba
AUB,BR,,,Itauba
AUC,CO,7.068888889,-69.26305556,Arauca
AUD,AU,,,Augustus Downs
AUE,EG,,,Abu Rudeis
AUG,US,44.32055556,-68.20277778,Augusta
AUH,AE,24.432972,54.651139,Abu Dhabi
AUI,PG,,,Aua Island
AUJ,PG,,,Ambunti
AUK,US,,,Alakanuk
AUL,MH,,,Aur Island
AUM,US,43.6625,-91.06722222,Austin
AUN,US,,,Auburn
AUO,US,32.615,-84.56611111,Auburn
AUP,PG,,,Agaun
AUQ,PF,,,Atuona
AUR,FR,44.8975,2.416666667,Aurillac
AUS,US,30.202622,-97.667615,"Austin, TX"
AUT,ID,,,Atauro
AUU,AU,-12.64611111,141.7208333,Aurukun Mission
AUW,US,44.92611111,-88.37305556,Wausau
AUX,BR,-6.771666667,-47.75916667,Araguaina
AUY,VU,,,Aneityum
AUZ,US,,,Aurora
AVB,IT,46.03,12.59861111,Aviano
AVF,FR,,,Avoriaz
AVG,AU,,,Auvergne
AVI,CU,22.02694444,-77.21055556,Ciego De Avila
AVK,MN,46.25027778,102.8025,Arvaikheer
AVL,US,35.43611111,-81.45833333,Asheville
AVN,FR,43.90638889,4.901944444,Avignon
AVO,US,27.59111111,-80.47111111,Avon Park
AVP,US,41.408969,75.6624122,Wilkes-Barre
AVU,SB,,,Avu Avu
AVV,AU,-37.96083333,144.4694444,Avalon
AVX,US,,,Catalina Island
AWA,ET,,,Awassa
AWB,PG,,,Awaba
AWD,VU,,,Aniwa
AWE,GA,,,Alowe
AWH,ET,,,Awareh
AWK,UM,19.28222222,166.6363889,Wake Island
AWM,US,35.135,-89.76555556,West Memphis
AWN,AU,,,Alton Downs
AWP,AU,,,Austral Downs
AWR,PG,,,Awar
AWZ,IR,31.3375,48.76027778,Ahwaz
AXA,AI,18.20472222,-62.94638889,Anguilla
AXC,AU,,,Aramac
AXD,GR,40.85583333,25.95611111,Alexandroupolis
AXG,US,,,Algona
AXK,YE,14.55111111,46.82583333,Ataq
AXL,AU,,,Alexandria
AXM,CO,4.451666667,-74.23388889,Armenia
AXN,US,45.86611111,-94.60555556,Alexandria
AXP,BS,22.45027778,-72.03416667,Spring Point
AXR,PF,,,Arutua
AXT,JP,39.61555556,140.2186111,Akita
AXU,ET,14.13694444,38.77583333,Axum
AXV,US,40.49333333,-83.70194444,Wapakoneta
AXX,US,36.42222222,-104.7102778,Angel Fire
AYA,CO,,,Ayapel
AYC,CO,,,Ayacucho
AYD,AU,,,Alroy Downs
AYE,US,,,Fort Devens
AYG,CO,,,Yaguara
AYH,GB,,,Alconbury
AYI,CO,,,Yari
AYK,KZ,,,Arkalyk
AYL,AU,,,Anthony Lagoon
AYN,CN,,,Anyang
AYP,PE,-12.84888889,-73.79833333,Ayacucho
AYQ,AU,-24.81388889,130.9755556,Ayers Rock
AYR,AU,,,Ayr
AYS,US,31.24833333,-81.60472222,Waycross
AYT,TR,36.90027778,30.79277778,Antalya
AYU,PG,,,Aiyura
AYW,ID,,,Ayawasi
AYZ,US,,,Amityville
AZB,PG,,,Amazon Bay
AZD,IR,31.90611111,54.27638889,Yazd
AZG,MX,19.1,-101.6333333,Apatzingan
AZN,UZ,40.72666667,72.29333333,Andizhan
AZO,US,42.23416667,-84.44861111,Kalamazoo
AZR,DZ,27.83916667,-0.181388889,Adrar
AZS,DO,19.27,-68.2625,Samana
AZT,CO,,,Zapatoca
AZZ,AO,-6.116666667,13.15,Ambriz
BAA,PG,,,Bialla
BAC,CO,,,Barranca de Upia
BAE,FR,,,Barcelonnette
BAF,US,42.1575,-71.28444444,Westfield
BAG,PH,16.375,120.6202778,Baguio
BAH,BH,26.270833,50.633611,Bahrain
BAI,CR,,,Buenos Aires
BAJ,PG,,,Bali
BAK,AZ,40.4675,50.046667,Baku
BAL,TR,37.93222222,41.11638889,Batman
BAM,US,40.59888889,-115.1258333,Battle Mountain
BAN,ZR,,,Basongo
BAO,TH,,,Ban Mak Khaeng
BAP,PG,,,Baibara
BAQ,CO,10.889589,-74.780819,Barranquilla
BAR,US,,,Baker Island
BAS,SB,,,Balalae
BAT,BR,-19.41444444,-47.40416667,Barretos
BAU,BR,-21.65638889,-48.94611111,Bauru
BAV,CN,,,Baotou
BAW,GA,,,Biawongue
BAX,RU,53.36333333,83.54,Barnaul
BAY,RO,47.65805556,23.46611111,Baia Mare
BAZ,BR,-0.952222222,-61.08055556,Barcelos
BBA,CL,-44.08361111,-70.31305556,Balmaceda
BBB,US,45.33166667,-94.34944444,Benson
BBC,US,,,Bay City
BBD,US,31.17916667,-98.67611111,Brady
BBE,AU,,,Big Bell
BBF,US,,,Burlington
BBG,KI,,,Butaritari
BBH,DE,54.33805556,12.71,Barth
BBI,IN,20.24666667,85.81833333,Bhubaneswar
BBJ,DE,49.94527778,6.565,Bitburg
BBK,BW,-16.16916667,25.1625,Kasane
BBL,IR,,,Babolsar
BBM,KH,13.09555556,103.2241667,Battambang
BBN,MY,,,Bario
BBO,SO,10.38333333,44.95,Berbera
BBP,GB,50.67805556,-0.890555556,Bembridge
BBQ,AG,,,Barbuda
BBR,GP,,,Basse Terre
BBS,GB,51.32388889,-0.819166667,Blackbushe
BBT,CF,4.226111111,15.78555556,Berberati
BBV,CI,,,Bereby
BBW,US,41.43638889,-98.35805556,Broken Bow
BBX,US,,,Blue Bell
BBY,CF,5.85,20.65,Bambari
BBZ,ZM,,,Zambezi
BCA,CU,20.36527778,-73.49388889,Baracoa
BCB,US,37.2075,-79.59222222,Blacksburg
BCC,US,,,Bear Creek
BCD,PH,10.77638889,123.0188889,Bacolod
BCE,US,37.70638889,-111.8544444,Bryce
BCF,CF,,,Bouca
BCG,GY,,,Bemichi
BCH,ID,-7.514722222,126.3991667,Baucau
BCI,AU,-22.43472222,145.3066667,Barcaldine
BCJ,US,,,Baca Grande
BCK,AU,,,Bolwarra
BCL,CR,,,Barra Colorado
BCM,RO,46.52194444,26.91027778,Bacau
BCN,ES,41.297078,2.078464,Barcelona
BCO,ET,,,Jinka
BCP,PG,,,Bambu
BCQ,LY,,,Brach
BCR,BR,-7.166388889,-66.68777778,Boca Do Acre
BCS,US,,,Belle Chasse
BCT,US,26.37833333,-79.8925,Boca Raton
BCU,NG,,,Bauchi
BCX,RU,,,Beloreck
BCY,ET,,,Bulchi
BCZ,AU,,,Bickerton Island
BDA,BM,32.36388889,-63.32138889,Bermuda
BDB,AU,-23.09611111,152.3186111,Bundaberg
BDC,BR,-4.499722222,-44.75777778,Barra Do Corda
BDD,AU,,,Badu Island
BDE,US,48.72833333,-93.38777778,Baudette
BDF,US,,,Bradford
BDG,US,37.58333333,-108.5169444,Blanding
BDH,IR,26.53138889,54.8275,Bandar Lengeh
BDI,SC,,,Bird Island
BDJ,ID,-2.560277778,114.7527778,Banjarmasin
BDK,CI,8.011388889,-1.235277778,Bondoukou
BDM,TR,40.31555556,27.98277778,Bandirma
BDN,PK,,,Badin
BDO,ID,-5.098055556,107.5761111,Bandung
BDP,NP,,,Bhadrapur
BDQ,IN,22.33,73.21888889,Vadodara
BDR,US,41.16333333,-72.87388889,Bridgeport
BDS,IT,40.66055556,17.94805556,Brindisi
BDT,ZR,4.25,20.96666667,Gbadolite
BDU,NO,69.05583333,18.54027778,Bardufoss
BDV,ZR,,,Moba
BDW,AU,,,Bedford Downs
BDX,US,,,Broadus
BDY,US,,,Bandon
BDZ,PG,,,Baindoung
BEA,PG,,,Bereina
BEB,GB,57.48111111,-6.637222222,Benbecula
BED,US,42.46972222,-70.71111111,Bedford
BEE,AU,,,Beagle Bay
BEF,NI,11.99055556,-82.22583333,Bluefields
BEG,RS,44.819444,20.306944,Belgrade
BEH,US,42.12833333,-85.57166667,Benton Harbor
BEI,ET,9.386388889,34.52194444,Beica
BEJ,ID,,,Berau
BEK,IN,,,Rae Bareli
BEL,BR,-0.615277778,-47.52111111,Belem
BEM,CF,,,Bossembele
BEN,LY,32.09666667,20.26944444,Benghazi
BEP,IN,,,Bellary
BER,DE,52.559686,13.287711,Berlin
BES,FR,48.44694444,-3.578333333,Brest
BET,US,60.77833333,-160.1630556,Bethel
BEU,AU,-23.65388889,139.4602778,Bedourie
BEV,IL,,,Beer Sheba
BEW,MZ,-18.20444444,34.90472222,Beira
BEX,GB,51.61611111,-0.904444444,Benson
BEY,LB,33.820931,35.488389,Beirut
BEZ,KI,,,Beru
BFB,US,,,Blue Fox Bay
BFC,AU,,,Bloomfield
BFD,US,41.80305556,-77.36,Bradford
BFE,DE,51.96472222,8.544722222,Bielefeld
BFF,US,41.87388889,-102.4044444,Scottsbluff
BFG,US,,,Bullfrog Basin
BFJ,FJ,,,Ba
BFL,US,35.43361111,-118.9425,Bakersfield
BFN,ZA,-28.90638889,26.30388889,Bloemfontein
BFO,ZW,-20.99,31.57944444,Buffalo Range
BFP,US,,,Beaver Falls
BFR,US,38.84,-85.55472222,Bedford
BFS,GB,54.6575,-6.215833,Belfast City
BFT,US,32.41194444,-79.36583333,Beaufort
BFU,CN,,,Bengbu
BFX,CM,5.534722222,10.35583333,Bafoussam
BGA,CO,7.126389,-73.184722,Bucarmanga
BGB,GA,,,Booue
BGC,PT,,,Braganca
BGD,US,35.70083333,-100.6063889,Borger
BGE,US,30.97138889,-83.36333333,Bainbridge
BGF,CF,4.3975,18.51972222,Bangui
BGG,CI,,,Bongouanou
BGH,MR,,,Boghe
BGI,BB,13.07444444,-58.50805556,Barbados
BGJ,IS,,,Borgarfjordur Eystri
BGK,BZ,,,Big Creek
BGL,NP,,,Baglung
BGM,US,42.20833333,-74.02027778,Binghamton
BGN,DE,51.2,6.133333333,Brueggen
BGO,NO,60.29361111,5.218055556,Bergen
BGP,GA,,,Bongo
BGQ,US,61.53611111,-148.1861111,Big Lake
BGR,US,44.80722222,-67.17194444,Bangor
BGT,US,,,Bagdad
BGU,CF,4.783333333,22.78333333,Bangassou
BGV,BR,,,Bento Goncalves
BGW,IQ,33.2625,44.234444,Baghdad
BGX,BR,-30.60916667,-53.89027778,Bage
BGZ,PT,41.585,-7.55,Braga
BHA,EC,-0.592222222,-79.59722222,Bahia de Caraquez
BHB,US,44.44972222,-67.63861111,Bar Harbor
BHE,NZ,-40.48166667,173.8702778,Blenheim
BHF,CO,,,Bahia Cupica
BHG,HN,,,Brus Laguna
BHH,SA,19.98416667,42.62305556,Bisha
BHI,AR,-37.27277778,-61.84666667,Bahia Blanca
BHJ,IN,23.28666667,69.67,Bhuj
BHK,UZ,39.775,64.48333333,Bukhara
BHL,MX,,,Bahia de los Angeles
BHM,US,33.56388889,-85.24777778,"Birmingham, AL"
BHN,YE,14.78333333,45.71666667,Beihan
BHO,IN,23.28694444,77.33666667,Bhopal
BHP,NP,,,Bhojpur
BHQ,AU,-31.99861111,141.4716667,Broken Hill
BHR,NP,,,Bharatpur
BHS,AU,-32.59055556,149.6519444,Bathurst
BHT,AU,,,Brighton Downs
BHU,IN,21.75416667,72.19055556,Bhavnagar
BHV,PK,29.34694444,71.71138889,Bahawalpur
BHX,GB,52.453856,-1.748028,"Birmingham, GB"
BHY,CN,,,Beihai
BHZ,BR,-19.623889,-43.971389,Belo Horizonte
BIA,FR,42.55,9.484722,Bastia
BIB,SO,,,Baidoa
BIC,US,,,Big Creek
BID,US,,,Block Island
BIE,US,40.30111111,-95.24611111,Beatrice
BIG,US,63.995,-144.28,Big Delta
BIH,US,37.37305556,-117.6363889,Bishop
BII,MH,,,Bikini Atoll
BIJ,PG,,,Biliau
BIK,ID,-0.808055556,136.11,Biak
BIL,US,45.8075,-107.4572222,Billings
BIM,BS,25.69972222,-78.735,Bimini
BIN,AF,34.81666667,67.81666667,Bamiyan
BIO,ES,43.301097,-2.910608,Bilbao
BIP,AU,,,Bulimba
BIQ,FR,43.46805556,-0.468888889,Biarritz
BIR,NP,26.48388889,87.26416667,Biratnagar
BIS,US,46.7725,-99.25444444,Bismarck
BIT,NP,,,Baitadi
BIU,IS,65.64138889,-22.45388889,Bildudalur
BIV,CF,6.526666667,21.99,Bria
BIW,AU,,,Billiluna
BIX,US,30.41027778,-87.07583333,Biloxi
BIY,ZA,-31.105,27.285,Bisho
BIZ,PG,,,Bimin
BJA,DZ,36.71194444,5.069444444,Bejaia
BJC,US,39.90861111,-104.8830556,Broomfield
BJD,IS,,,Bakkafjordur
BJF,NO,70.60027778,29.6925,Batsfjord
BJG,ID,,,Bolaang
BJH,NP,,,Bajhang
BJI,US,47.51055556,-93.06527778,Bemidji
BJJ,US,40.87472222,-80.11194444,Wooster
BJK,ID,,,Benjina
BJL,GM,13.337961,-16.652206,Banjul
BJM,BI,-3.324019,29.318519,Bujumbura
BJN,MZ,,,Bajone
BJO,BO,-21.22944444,-63.6875,Bermejo
BJR,ET,11.60611111,37.31972222,Bahar Dar
BJS,CN,40.080111,116.584556,Beijing
BJU,NP,,,Bajura
BJW,ID,,,Bajawa
BJX,MX,20.99305556,-100.5191667,Leon-Guanajuato
BJZ,ES,38.89138889,-5.178611111,Badajoz
BKB,IN,28.06666667,73.2,Bikaner
BKC,US,,,Buckland
BKD,US,32.71861111,-97.10861111,Breckenridge
BKE,US,44.83722222,-116.1911111,Baker
BKF,US,,,Brooks Lake
BKH,US,22.0225,-158.215,Kekaha
BKI,MY,5.944722222,116.0530556,Kota Kinabalu
BKJ,GN,10.955,-13.69333333,Boke
BKK,TH,13.681108,100.747283,Bangkok
BKM,MY,,,Bakalalan
BKN,NE,36.745,-96.65055556,Birni Nkoni
BKO,ML,12.53777778,-6.056944444,Bamako
BKP,AU,,,Barkly Downs
BKQ,AU,-23.57166667,145.4283333,Blackall
BKR,TD,,,Bokoro
BKS,ID,-2.138888889,102.3394444,Bengkulu
BKT,US,37.07416667,-76.04277778,Blackstone
BKU,MG,,,Betioky
BKW,US,37.78722222,-80.87611111,Beckley
BKX,US,44.30472222,-95.18305556,Brookings
BKY,ZR,-1.691111111,28.80861111,Bukavu
BKZ,TZ,,,Bukoba
BLA,VE,10.11111111,-63.30777778,Barcelona
BLB,PA,,,Balboa
BLC,CM,,,Bali
BLD,US,,,Boulder City
BLE,SE,60.42222222,15.515,Borlange
BLF,US,37.29555556,-80.7925,Bluefield
BLG,MY,61.17194444,-150.9561111,Belaga
BLH,US,33.61916667,-113.2833333,Blythe
BLI,US,48.7925,-121.4625,Bellingham
BLJ,DZ,35.75916667,6.3225,Batna
BLK,GB,53.77138889,-2.971666667,Blackpool
BLL,DK,55.740278,9.151944,Billund
BLM,US,40.18666667,-73.87555556,Belmar
BLN,AU,-35.44583333,146.0091667,Benalla
BLO,IS,,,Blonduos
BLP,PE,-6.916666667,-75.43333333,Bellavista
BLQ,IT,44.535444,11.288667,Bologna
BLR,IN,13.198889,77.705556,Bengaluru
BLS,AU,,,Bollon
BLT,AU,-22.39666667,148.8066667,Blackwater
BLU,US,,,Blue Canyon
BLV,US,38.545,-88.165,Belleville
BLW,US,,,Waimanalo
BLX,IT,,,Belluno
BLY,IE,,,Belmullet
BLZ,MW,-14.32027778,34.9675,Blantyre
BMB,ZR,2.183333333,22.5,Bumba
BMC,US,41.55222222,-111.9377778,Brigham City
BMD,MG,-18.31666667,44.53333333,Belo
BME,AU,-16.05027778,122.2277778,Broome
BMF,CF,,,Bakouma
BMG,US,39.14583333,-85.38333333,Bloomington
BMH,PG,,,Bomai
BMI,US,40.47694444,-87.08416667,Bloomington-Normal
BMJ,GY,,,Baramita
BMK,DE,53.59527778,6.709166667,Borkum
BML,US,44.57527778,-70.82416667,Berlin
BMM,GA,2.083333333,11.48333333,Bitam
BMN,IQ,,,Bamerny
BMO,MM,24.27055556,97.24722222,Bhamo
BMP,AU,,,Brampton Island
BMQ,KE,30.73888889,-97.76138889,Bamburi
BMR,DE,,,Baltrum
BMS,BR,-13.74166667,-40.17916667,Brumado
BMU,ID,,,Bima
BMV,VN,12.66805556,108.12,Ban Me Thuot
BMW,DZ,21.375,0.923888889,Bordj Badji Moktar
BMX,US,,,Big Mountain
BMY,NC,,,Belep Island
BMZ,PG,,,Bamu
BNA,US,36.134102,-86.668312,Nashville
BNB,ZR,-0.233333333,20.86666667,Boende
BNC,ZR,0.583333333,29.46666667,Beni
BND,IR,27.21861111,56.37777778,Bandar Abbas
BNE,AU,-27.383333,153.118056,Brisbane
BNF,US,,,Baranof
BNG,US,33.9225,-115.1497222,Banning
BNI,NG,6.316111111,5.599166667,Benin Stadt
BNJ,DE,50.76861111,7.163888889,Bonn
BNK,AU,,,Ballina
BNL,US,33.25777778,-80.61222222,Barnwell
BNM,PG,,,Bodinumu
BNN,NO,65.46111111,12.2175,Bronnoysund
BNO,US,43.59166667,-117.0447222,Burns
BNP,PK,32.97194444,70.52472222,Bannu
BNQ,PH,,,Baganga
BNR,BF,,,Banfora
BNS,VE,8.615,-69.78583333,Barinas
BNT,PG,,,Bundi
BNU,BR,,,Blumenau
BNV,PG,,,Boana
BNW,US,42.04944444,-92.1525,Boone
BNX,BA,44.94138889,17.29722222,Banja Luka
BNY,SB,,,Bellona
BNZ,PG,,,Banz
BOA,ZR,,,Boma
BOB,PF,-15.55638889,-150.2475,Bora Bora
BOC,PA,9.340833333,-81.74916667,Bocas Del Toro
BOD,FR,44.82861111,-0.684722222,Bordeaux
BOE,CG,,,Boundji
BOG,CO,4.701594,-74.146947,Bogota
BOH,GB,50.78,-0.1575,Bournemouth
BOI,US,43.56416667,-115.7772222,Boise
BOJ,BG,42.57027778,27.51527778,Burgas
BOK,US,,,Brookings
BOL,GB,,,Bally Kelly
BOM,IN,19.088686,72.867919,Mumbai
BON,AN,12.13083333,-67.72333333,Bonaire
BOO,NO,67.26916667,14.36527778,Bodo
BOP,CF,5.966666667,15.63333333,Bouar
BOQ,PG,,,Boku
BOR,FR,,,Belfort
BOS,US,42.366863,-71.027451,Boston
BOT,PG,,,Boset
BOU,FR,47.06083333,2.37,Bourges
BOV,PG,,,Boang
BOW,US,27.94333333,-80.21666667,Bartow
BOX,AU,-15.92472222,136.3022222,Borroloola
BOY,BF,11.16722222,-3.679166667,Bobo Dioulasso
BOZ,CF,,,Bozoum
BPA,US,,,Bethpage
BPB,PG,,,Boridi
BPC,CM,,,Bamenda
BPD,PG,,,Bapi
BPF,SB,,,Batuna
BPG,BR,-14.13916667,-51.61055556,Barra Do Garcas
BPH,PH,,,Bislig
BPI,US,42.585,-109.8888889,Big Piney
BPN,ID,-0.732777778,116.8938889,Balikpapan
BPS,BR,-15.56194444,-38.92222222,Porto Seguro
BPT,US,29.95083333,-93.97944444,Beaumont
BPU,JP,,,Beppu
BPY,MG,-15.25,44.48333333,Besalampy
BQA,PH,15.72944444,121.5036111,Baler
BQE,GW,,,Bubaque
BQH,GB,51.33083333,0.0325,Biggin Hill
BQL,AU,-21.08666667,139.8997222,Boulia
BQN,PR,18.49472222,-66.87055556,Aguadilla
BQO,CI,9.266666667,-2.966666667,Bouna
BQQ,BR,-10.91611111,-42.86611111,Barra
BQS,RU,50.425,127.4116667,Blagoveschensk
BQT,BY,52.10833333,23.89638889,Brest
BQU,VC,,,Port Elizabeth
BQW,AU,-19.85166667,127.9733333,Balgo Hills
BRA,BR,-11.92083333,-44.99055556,Barreiras
BRB,BR,,,Barreirinhas
BRC,AR,-40.84888889,-70.84222222,San Carlos De Bariloche
BRD,US,46.40166667,-93.86444444,Brainerd
BRE,DE,53.0475,8.786667,Bremen
BRF,GB,,,Bradford
BRG,US,,,Whitesburg
BRH,PG,,,Brahman
BRI,IT,41.138856,16.760594,Bari
BRJ,AU,-36.95166667,147.3333333,Bright
BRK,AU,-29.96166667,145.9516667,Bourke
BRL,US,40.78305556,-90.87472222,Burlington
BRM,VE,10.04222222,-68.63944444,Barquisimeto
BRN,CH,46.9141,7.497153,Berne
BRO,US,25.90666667,-96.57416667,Brownsville
BRP,PG,,,Biaru
BRQ,CZ,49.15138889,16.69388889,Brno
BRR,GB,57.02277778,-6.556944444,Barra
BRS,GB,51.382669,-2.719089,Bristol
BRT,AU,-10.23083333,130.6197222,Bathurst Island
BRU,BE,50.901389,4.484444,Brussels
BRV,DE,53.50694444,8.572777778,Bremerhaven
BRW,US,71.28472222,-155.2316667,Barrow
BRX,DO,18.25166667,-70.87805556,Barahona
BRY,US,37.81416667,-84.50055556,Bardstown
BRZ,CI,,,Borotou
BSA,SO,,,Bossaso
BSB,BR,-15.869167,-47.920833,Brasilia
BSC,CO,6.203055556,-76.60527778,Bahia Solano
BSD,CN,,,Baoshan
BSE,MY,,,Sematan
BSF,US,,,Pohakuloa
BSG,GQ,1.901944444,9.802777778,Bata
BSH,GB,,,Brighton
BSI,US,,,Blairsville
BSJ,AU,-36.11166667,147.5683333,Bairnsdale
BSK,DZ,34.80166667,5.741666667,Biskra
BSL,CH,47.589583,7.529914,Basel
BSN,CF,6.5,17.43333333,Bossangoa
BSO,PH,20.45027778,121.9786111,Basco
BSP,PG,,,Bensbach
BSQ,US,,,Bisbee
BSR,IQ,30.54888889,47.66194444,Basra
BSS,BR,-6.474722222,-45.94666667,Balsas
BST,AF,31.55,64.36666667,Bost
BSU,ZR,1.216666667,19.8,Basankusu
BSW,US,,,Boswell Bay
BSX,MM,16.81194444,94.77361111,Bassein
BSY,SO,,,Bardera
BSZ,US,,,Bartletts
BTA,CM,4.55,13.71666667,Bertoua
BTB,CG,,,Betou
BTC,LK,,,Batticaloa
BTD,AU,,,Brunette Downs
BTE,SL,,,Bonthe
BTF,US,40.86916667,-110.0730556,Bountiful
BTG,CF,,,Batangafo
BTH,ID,1.118611111,104.1138889,Batu Besar
BTI,US,70.13388889,-142.4183333,Barter Island
BTJ,ID,5.516944444,95.42,Banda Aceh
BTK,RU,56.37,101.6983333,Bratsk
BTL,US,42.30722222,-84.74861111,Battle Creek
BTM,US,45.95472222,-111.5027778,Butte
BTN,US,45.815,-96.25722222,Bennettsville
BTO,SR,,,Botopasie
BTP,US,40.77638889,-78.04916667,Butler
BTQ,RW,,,Butare
BTR,US,30.53277778,-90.85027778,Baton Ruge
BTS,SK,48.17,17.21277778,Bratislava
BTT,US,66.91388889,-150.4711111,Bettles
BTU,MY,3.123888889,113.0197222,Bintulu
BTV,US,44.47166667,-72.84694444,Burlington
BTW,ID,,,Batu Licin
BTX,AU,,,Betoota
BTY,US,36.86083333,-115.2130556,Beatty
BUA,PG,-4.577777778,154.6727778,Buka
BUB,US,,,Burwell
BUC,AU,-16.25166667,139.535,Burketown
BUD,HU,47.439444,19.261944,Budapest
BUE,AR,-34.822222,-58.535833,Buenos Aires
BUF,US,42.930882,-78.738022,Buffalo
BUG,AO,-11.39027778,13.40361111,Benguela
BUH,RO,44.571111,26.085,Bucharest
BUI,ID,,,Bokondini
BUJ,DZ,,,Boussaada
BUK,YE,17.34666667,44.62166667,Albuq
BUL,PG,,,Bulolo
BUM,US,38.28972222,-93.66,Butler
BUN,CO,3.819444444,-75.01027778,Buenaventura
BUO,SO,9.5,45.56666667,Burao
BUP,IN,,,Bhatinda
BUQ,ZW,-19.98166667,28.62472222,Bulawayo
BUR,US,34.20055556,-117.6413889,Burbank
BUS,GE,41.61,41.59944444,Batumi
BUT,GB,,,Burtonwood
BUU,CI,42.69055556,-87.69555556,Buyo
BUV,UY,,,Bella Union
BUW,ID,,,Baubau
BUX,ZR,1.565555556,30.22055556,Bunia
BUY,AU,36.04833333,-78.52527778,Bunbury
BUZ,IR,28.94944444,50.83027778,Bushehr
BVA,FR,49.45416667,2.112777778,Beauvais
BVB,BR,2.841388889,-59.30777778,Boa Vista
BVC,CV,16.13722222,-21.11138889,Boa Vista Island
BVD,US,,,Beaver Inlet
BVE,FR,,,Brive-La-Gaillarde
BVF,FJ,,,Bua
BVG,NO,70.87138889,29.03416667,Berlevag
BVH,BR,-11.30583333,-59.90277778,Vilhena
BVI,AU,40.77222222,-79.60861111,Birdsville
BVK,BO,65.98138889,-160.8511111,Huacaraje
BVL,BO,,,Baures
BVM,BR,,,Belmonte
BVO,US,36.76416667,-95.98888889,Bartlesville
BVP,PG,,,Bolovip
BVR,CV,,,Brava
BVS,BR,-0.361388889,-49.55861111,Breves
BVU,US,,,Beluga
BVW,AU,,,Batavia Downs
BVX,US,35.72611111,-90.35277778,Batesville
BVY,US,42.58388889,-69.08388889,Beverly
BVZ,AU,,,Beverley Springs
BWA,NP,27.50722222,83.41777778,Bhairawa
BWB,AU,-19.13416667,115.4047222,Barrow Island
BWC,US,32.99277778,-114.4833333,Brawley
BWD,US,31.79361111,-97.04361111,Brownwood
BWE,DE,52.31916667,10.55611111,Braunschweig
BWF,GB,54.12861111,-2.7325,Barrow-In-Furness
BWG,US,36.96444444,-85.58055556,Bowling Green
BWI,US,39.26527,-76.662144,Baltimore
BWJ,PG,,,Bawan
BWK,HR,,,Bol
BWL,US,,,Blackwell
BWM,US,,,Bowman
BWN,BN,4.944166667,114.9283333,Bandar Seri Begawan
BWO,RU,,,Balakovo
BWP,PG,46.24416667,-95.39305556,Bewani
BWQ,AU,-28.02666667,146.8166667,Brewarrina
BWS,US,,,Blaine
BWT,AU,,,Burnie
BWU,AU,,,Bankstown
BWY,GB,,,Woodbridge
BXA,US,30.81361111,-88.13527778,Bogalusa
BXB,ID,,,Babo
BXC,US,,,Boxborough
BXD,ID,,,Bade
BXE,SN,14.86666667,-11.51666667,Bakel
BXH,KZ,46.89388889,75.00527778,Balkhash
BXI,CI,9.533333333,-5.533333333,Boundiali
BXK,US,33.42027778,-111.3138889,Buckeye
BXL,FJ,,,Blue Lagoon
BXM,ID,,,Batom
BXN,TR,37.14,27.66888889,Bodrum
BXS,US,,,Borrego Springs
BXT,ID,,,Bontang
BXU,PH,8.958333333,125.4916667,Butuan
BXV,IS,,,Breiddalsvik
BXX,SO,,,Borama
BYA,US,,,Boundary
BYB,OM,,,Dibaa
BYC,BO,-20.05,-62.34583333,Yacuiba
BYD,YE,,,Beidah
BYG,US,44.38083333,-105.2783333,Buffalo
BYH,US,35.94027778,-88.16944444,Blytheville
BYI,US,42.5425,-112.2286111,Burley/Rupert
BYK,CI,7.752222222,-4.9325,Bouake
BYL,LR,,,Bella Yella
BYM,CU,20.39638889,-75.37861111,Bayamo
BYN,MN,46.16277778,100.7047222,Bayankhongor
BYQ,ID,,,Bunyu
BYR,DK,,,Laeso Island
BYS,US,,,Fort Irwin
BYT,IE,,,Bantry
BYU,DE,49.98416667,11.63833333,Bayreuth
BYW,US,,,Blakely Island
BYX,AU,,,Baniyala
BZA,NI,,,Bonanza
BZC,BR,-21.23388889,-40.03444444,Buzios
BZD,AU,,,Balranald
BZE,BZ,17.53888889,-87.69194444,Belize City
BZG,PL,53.09666667,17.97777778,Bydgoszcz
BZI,TR,39.61555556,27.93277778,Balikesir
BZK,RU,53.21333333,34.17833333,Briansk
BZL,BD,22.79888889,90.30111111,Barisal
BZM,NL,,,Bergen Op Zoom
BZN,US,45.7775,-110.8480556,Bozeman
BZO,IT,46.46027778,11.32638889,Bolzano
BZP,AU,,,Bizant
BZR,FR,43.32333333,3.353333333,Beziers
BZT,US,,,Brazoria
BZU,ZR,2.816666667,24.78333333,Buta
BZV,CG,-3.744444444,15.24833333,Brazzaville
BZY,MD,47.83833333,27.78055556,Beltsy
BZZ,GB,51.74972222,-0.416388889,Brize Norton
CAA,HN,,,Catacamas
CAB,AO,-4.413611111,12.18833333,Cabinda
CAC,BR,-24.99777778,-52.49805556,Cascavel
CAD,US,44.27527778,-84.58111111,Cadillac
CAE,US,33.93861111,-80.88055556,"Columbia, SC"
CAF,BR,-3.121388889,-65.10444444,Carauari
CAG,IT,39.251469,9.054283,Cagliari
CAH,VN,,,Ca Mau
CAI,EG,30.121944,31.405556,Cairo
CAJ,VE,6.231944444,-61.14527778,Canaima
CAK,US,40.91583333,-80.55805556,Akron/Canton
CAL,GB,55.43722222,-4.313611111,Campbeltown
CAM,BO,,,Camiri
CAN,CN,23.392436,113.298786,Guangzhou
CAO,US,36.44611111,-102.8502778,Clayton
CAP,HT,19.7325,-71.80527778,Cap Haitien
CAQ,CO,,,Caucasia
CAR,US,46.87138889,-67.98222222,Caribou
CAS,MA,33.367467,-7.589967,Casablanca
CAT,BS,,,Cat Island
CAU,BR,-7.715555556,-35.98916667,Caruaru
CAV,AO,,,Cazombo
CAW,BR,-20.29888889,-40.69222222,Campos
CAX,GB,54.9375,-1.190833333,Carlisle
CAY,GF,4.819722222,-51.63805556,Cayenne
CAZ,AU,-30.46166667,145.7933333,Cobar
CBA,US,,,Corner Bay
CBB,BO,-16.57888889,-65.82305556,Cochabamba
CBC,AU,,,Cherrabun
CBD,IN,9.15,92.81666667,Car Nicobar
CBE,US,39.615,-77.23833333,Cumberland
CBF,US,41.26,-94.24138889,Council Bluffs
CBG,GB,52.205,0.175,Cambridge
CBH,DZ,31.65055556,-1.746944444,Bechar
CBJ,DO,17.92888889,-70.35555556,Cabo Rojo
CBK,US,39.42722222,-100.9536111,Colby
CBL,VE,,,Ciudad Bolivar
CBN,ID,,,Cirebon
CBO,PH,7.164722222,124.2102778,Cotabato
CBP,PT,,,Coimbra
CBQ,NG,4.976111111,8.347222222,Calabar
CBR,AU,-34.69305556,149.195,Canberra
CBS,VE,10.33,-70.6775,Cabimas
CBT,AO,,,Catumbela
CBU,DE,51.88944444,14.53194444,Cottbus
CBV,GT,,,Coban
CBX,AU,-32.935,147.2083333,Condobolin
CBY,AU,,,Canobie
CBZ,US,,,Cabin Creek
CCA,US,,,Fort Chaffee
CCB,US,25.05833333,-110.3916667,Upland
CCC,CU,22.46111111,-77.67138889,Cayo Coco
CCF,FR,43.21555556,2.308333333,Carcassonne
CCG,US,,,Crane
CCH,CL,,,Chile Chico
CCI,BR,-26.81944444,-51.94888889,Concordia
CCJ,IN,,,Kozhikode
CCK,CC,-11.81166667,96.83,Cocos Islands
CCL,AU,,,Chinchilla
CCM,BR,-27.27555556,-48.57888889,Criciuma
CCN,AF,34.52638889,65.27083333,Chakcharan
CCO,CO,33.31138889,-83.23027778,Carimagua
CCP,CL,-35.22722222,-72.93694444,Concepcion
CCQ,BR,,,Cachoeira
CCR,US,37.98944444,-121.9433333,Concord
CCS,VE,10.603117,-66.990583,Caracas
CCT,AR,,,Colonia Catriel
CCU,IN,22.65388889,88.44666667,Kolkata
CCV,VU,,,Craig Cove
CCW,AU,-32.33333333,136.8916667,Cowell
CCX,BR,-15.95722222,-56.37027778,Caceres
CCY,US,43.0725,-91.38944444,Charles City
CCZ,BS,25.41666667,-76.11666667,Chub Cay
CDA,AU,-11.09666667,132.5316667,Cooinda
CDB,US,55.205,-161.2755556,Cold Bay
CDC,US,37.70083333,-112.9013889,Cedar City
CDE,PA,,,Caledonia
CDF,IT,,,Cortina D'Ampezzo
CDH,US,33.62277778,-91.23666667,Camden
CDJ,BR,-7.651388889,-48.69694444,Conceicao Do Araguaia
CDK,US,,,Cedar Key
CDL,US,,,Candle
CDN,US,34.28333333,-79.43527778,Camden
CDO,ZA,,,Cradock
CDP,IN,,,Cuddapah
CDQ,AU,,,Croydon
CDR,US,42.8375,-102.9047222,Chadron
CDS,US,34.43361111,-99.71222222,Childress
CDU,AU,-33.95972222,150.6872222,Camden
CDV,US,60.49166667,-144.5225,Cordova
CDW,US,40.875,-73.71888889,Caldwell
CDY,PH,,,Cagayan De Sulu
CEB,PH,10.3075,123.9791667,Cebu
CEC,US,41.78,-123.7636111,Crescent City
CED,AU,-31.87,133.71,Ceduna
CEE,RU,,,Cherepovets
CEF,US,42.19388889,-71.46527778,Chicopee
CEG,GB,53.17805556,-1.022222222,Chester
CEI,TH,19.95222222,99.88305556,Chiang Rai
CEJ,UA,,,Chernigov
CEK,RU,55.305,61.505,Chelyabinsk
CEL,BS,,,Cape Eleuthera
CEM,US,,,Central
CEN,MX,27.39277778,-108.1666667,Ciudad Obregon
CEO,AO,-10.55,15.08333333,Waco Kungo
CEP,BO,-15.86166667,-61.97138889,Concepcion
CEQ,FR,43.54638889,6.954166667,Cannes
CER,FR,49.65055556,-0.524722222,Cherbourg
CES,AU,,,Cessnock
CET,FR,47.08166667,-0.856388889,Cholet
CEU,US,34.67166667,-81.11333333,Clemson
CEV,US,39.69833333,-84.87055556,Connersville
CEW,US,30.77861111,-85.47805556,Crestview
CEX,US,,,Chena Hot Springs
CEY,US,36.66444444,-87.62722222,Murray
CEZ,US,37.30277778,-107.3719444,Cortez
CFA,US,,,Coffee Point
CFD,US,30.71555556,-95.66888889,Bryan
CFE,FR,45.78583333,3.162222222,Clermont-Ferrand
CFF,AO,,,Cafundo
CFG,CU,22.15,-79.58583333,Cienfuegos
CFH,AU,,,Clifton Hills
CFI,AU,,,Camfield
CFN,IE,55.04416667,-7.659166667,Donegal
CFO,BR,,,Confreza
CFP,AU,,,Carpentaria Downs
CFR,FR,49.17305556,-0.416944444,Caen
CFS,AU,-29.67944444,153.1163889,Coffs Harbour
CFT,US,32.95694444,-108.7888889,Clifton
CFU,GR,39.601944,19.911667,Kerkyra
CFV,US,37.09388889,-94.42833333,Coffeyville
CGA,US,,,Craig
CGB,BR,-14.35,-55.8825,Cuiaba
CGC,PG,28.86777778,-81.42611111,Cape Gloucester
CGD,CN,,,Changde
CGE,US,38.53916667,-75.96972222,Cambridge
CGG,PH,,,Casiguran
CGI,US,37.22527778,-88.42944444,Cape Girardeau
CGJ,ZM,,,Chingola
CGM,PH,9.254166667,124.7036111,Camiguin
CGN,DE,50.865917,7.142744,Cologne
CGO,CN,34.51833333,113.8416667,Zhengzhou
CGP,BD,22.25694444,91.82194444,Chittagong
CGQ,CN,,,Changchun
CGR,BR,-19.53055556,-53.32972222,Campo Grande
CGS,US,38.98055556,-75.07777778,College Park
CGT,MR,,,Chinguitti
CGU,VE,8.122222222,-62.46333333,Guayana Stadt
CGV,AU,,,Caiguna
CGY,PH,8.416111111,124.6111111,Cagayan De Oro
CGZ,US,32.95472222,-110.2333333,Casa Grande
CHA,US,35.035,-84.79666667,Chattanooga
CHB,PK,35.42666667,74.08166667,Chilas
CHC,NZ,-43.489358,172.532225,Christchurch
CHD,US,,,Chandler
CHE,IE,,,Caherciveen
CHF,KR,,,Chinhae
CHG,CN,,,Chaoyang
CHH,PE,-5.798055556,-76.14388889,Chachapoyas
CHI,US,41.97963,-87.882462,Chicago
CHJ,ZW,,,Chipinge
CHK,US,35.09722222,-96.0325,Chickasha
CHL,US,,,Challis
CHM,PE,-8.850277778,-77.47638889,Chimbote
CHN,KR,27.51472222,-80.11972222,Chonju
CHO,US,38.13861111,-77.54722222,Charlottesville
CHP,US,,,Circle Hot Spring
CHQ,GR,35.531747,24.149678,Chania
CHR,FR,46.86027778,1.721111111,Chateauroux
CHS,US,32.89861111,-79.95972222,"Charleston, SC"
CHT,NZ,-42.19,-175.5427778,Chatham Island
CHU,US,,,Chuathbaluk
CHV,PT,,,Chaves
CHW,CN,,,Jiuquan
CHX,PA,,,Changuinola
CHY,SB,,,Choiseul Bay
CHZ,US,,,Chiloquin
CIC,US,39.79527778,-120.1416667,Chico
CID,US,41.885,-90.28777778,Cedar Rapids
CIE,AU,,,Collie
CIF,CN,,,Chifeng
CIG,US,,,Craig
CIH,CN,,,Changzhi
CIJ,BO,-10.95722222,-67.21666667,Cobija
CIK,US,66.645,-142.2602778,Chalkyitsik
CIL,US,,,Council
CIM,CO,6.367222222,-72.02944444,Cimitarra
CIN,US,42.04611111,-93.21111111,Carroll
CIP,ZM,-12.43333333,32.59,Chipata
CIQ,GT,,,Chiquimula
CIR,US,37.06444444,-88.78055556,Cairo
CIS,KI,-1.231944444,-170.2897222,Canton Island
CIT,KZ,42.365,69.47611111,Shymkent
CIV,US,,,Chomley
CIW,VC,,,Canouan Island
CIX,PE,-5.212777778,-78.17194444,Chiclayo
CIY,IT,,,Comiso
CIZ,BR,-3.866111111,-62.86888889,Coari
CJA,PE,-6.860833333,-77.51055556,Cajamarca
CJB,IN,11.02666667,77.04166667,Coimbatore
CJC,CL,-21.50166667,-67.09638889,Calama
CJD,CO,,,Candilejas
CJH,CA,,,Chilko Lake
CJL,PK,35.88611111,71.79972222,Chitral
CJN,US,,,El Cajon
CJS,MX,31.63611111,-105.5713889,Ciudad Juarez
CJU,KR,33.51222222,126.4927778,Cheju
CKA,US,36.75,-97.88333333,Cherokee
CKB,US,39.29638889,-79.77194444,Clarksburg
CKC,UA,49.41583333,31.995,Cherkassy
CKD,US,,,Crooked Creek
CKE,US,,,Clear Lake
CKG,CN,29.71666667,106.64,Chongqing
CKH,RU,,,Chokurdah
CKI,AU,-10.835,132.4833333,Croker Island
CKK,US,,,Cherokee
CKM,US,34.29972222,-89.48777778,Clarksdale
CKN,US,47.84138889,-95.37861111,Crookston
CKO,BR,-22.84722222,-49.39722222,Cornelio Procopio
CKR,US,,,Crane Island
CKS,BR,-5.884722222,-49.99861111,Carajas
CKV,US,36.62166667,-86.58527778,Clarksville
CKX,US,,,Chicken
CKY,GN,9.576889,-13.611961,Conakry
CKZ,TR,40.13611111,26.42472222,Canakkale
CLA,BD,23.4375,91.18944444,Comilla
CLB,IE,,,Castlebar
CLC,US,,,Clear Lake City
CLD,US,33.12805556,-116.72,Carlsbad
CLE,US,41.41172,-81.834892,Cleveland
CLG,US,,,Coalinga
CLH,AU,,,Coolah
CLI,US,44.61305556,-87.26944444,Clintonville
CLJ,RO,46.785,23.686111,Cluj
CLL,US,30.58833333,-95.63638889,College Station
CLM,US,48.12,-122.5005556,Port Angeles
CLN,BR,-6.679444444,-46.54138889,Carolina
CLO,CO,3.543056,-76.381389,Cali
CLP,US,58.83361111,-157.4708333,Clarks Point
CLQ,MX,19.27694444,-102.4225,Colima
CLR,US,33.13111111,-114.4786111,Calipatria
CLS,US,46.67694444,-121.0175,Chehalis
CLT,US,35.228936,-80.941998,Charlotte
CLU,US,39.26166667,-84.10388889,Columbus
CLV,BR,-16.27527778,-47.39,Caldas Novas
CLX,AR,,,Clorinda
CLY,FR,42.52444444,8.793055556,Calvi
CLZ,VE,8.924722222,-66.58305556,Calabozo
CMA,AU,34.21361111,-118.9058333,Cunnamulla
CMB,LK,6.823055556,79.885,Colombo
CMC,BR,,,Camocim
CMD,AU,-33.37666667,148.0283333,Cootamundra
CME,MX,18.65194444,-90.20055556,Ciudad Del Carm
CMF,FR,45.63916667,5.88,Chambery
CMG,BR,-18.98805556,-56.32861111,Corumba
CMH,US,39.81361111,-81.07222222,"Columbus, OH"
CMI,US,40.03861111,-87.72222222,Champaign
CMJ,TW,23.21305556,119.4175,Chi Mei
CMK,MW,,,Club Makokola
CML,AU,,,Camooweal
CMM,GT,,,Carmelita
CMO,SO,,,Obbia
CMP,BR,-8.664722222,-49.64972222,Santana Do Araguaia
CMQ,AU,-21.22666667,147.62,Clermont
CMR,FR,48.11027778,7.358888889,Colmar
CMS,SO,10.3,50.23333333,Scusciuban
CMT,BR,,,Cameta
CMU,PG,,,Kundiawa
CMV,NZ,,,Coromandel
CMW,CU,21.42027778,-76.1525,Camaguey
CMX,US,47.16833333,-87.51111111,Hancock
CMY,US,43.95833333,-89.26222222,Sparta
CMZ,MZ,,,Caia
CNA,MX,31.0,-109.7333333,Cananea
CNB,AU,-29.01666667,148.3755556,Coonamble
CNC,AU,41.01944444,-92.64055556,Coconut Island
CND,RO,44.36194444,28.48833333,Constanta
CNE,US,,,Canon City
CNG,FR,45.65805556,-0.315833333,Cognac
CNH,US,,,Claremont
CNI,CN,,,Changhai
CNJ,AU,-19.33138889,140.5044444,Cloncurry
CNK,US,,,Concordia
CNL,DK,57.50333333,10.22916667,Sindal
CNM,US,32.33722222,-103.7369444,Carlsbad
CNN,RU,56.91333333,124.9116667,Chulman
CNO,US,33.97472222,-116.3636111,Chino
CNP,GL,70.74305556,-21.34944444,Eastgreenland
CNQ,AR,-26.55444444,-57.23805556,Corrientes
CNR,CL,-25.67777778,-69.38888889,Chanaral
CNS,AU,-15.11333333,145.755,Cairns
CNT,AR,,,Charata
CNU,US,37.66861111,-94.515,Chanute
CNV,BR,,,Canavieiras
CNX,TH,18.771667,98.968889,Chiang Mai
CNY,US,38.75472222,-108.2452778,Moab
CNZ,AO,,,Cangamba
COA,US,,,Columbia
COB,AU,,,Coolibah
COC,AR,-30.70305556,-56.00333333,Concordia
COD,US,44.52,-108.9763889,Cody
COE,US,47.77416667,-115.1805556,Coeur D'Alene
COG,CO,5.071944444,-75.32361111,Condoto
COH,IN,,,Cooch Behar
COJ,AU,-30.66666667,149.2666667,Coonabarabran
COK,IN,,,Kochi
COL,GB,,,Coll
COM,US,31.84111111,-98.59638889,Coleman
CON,US,43.2025,-70.49777778,Concord
COO,BJ,6.357228,2.384353,Cotonou
COP,US,,,Cooperstown
COQ,MN,48.13555556,114.6466667,Choibalsan
COR,AR,-30.69,-63.79166667,Cordoba
COS,US,38.67833333,-103.2436111,Colorado Springs
COT,US,28.45666667,-98.78166667,Cotulla
COU,US,38.81805556,-91.78055556,Columbia
COV,PT,,,Covilha
COW,CL,,,Coquimbo
COX,BS,24.15027778,-76.41722222,Congo Town
COY,AU,,,Coolawanyah
COZ,DO,18.9075,-69.27805556,Constanza
CPA,LR,,,Cape Palmas
CPB,CO,,,Capurgana
CPC,AR,-39.92472222,-70.86277778,San Martin de los Andes
CPD,AU,-28.96,134.7216667,Coober Pedy
CPE,MX,19.81666667,-89.49972222,Campeche
CPF,ID,,,Cepu
CPG,AR,,,Carmen De Patagones
CPH,DK,55.618056,12.656111,Copenhagen
CPL,CO,3.724166667,-74.53472222,Chaparral
CPM,US,,,Compton
CPN,PG,,,Cape Rodney
CPO,CL,-26.73861111,-69.22083333,Copiapo
CPQ,BR,,,Campinas
CPR,US,42.90777778,-105.5358333,Casper
CPT,ZA,-33.969444,18.597222,Cape Town
CPU,BR,38.14611111,-119.3519444,Cururupu
CPV,BR,-6.730833333,-34.105,Campina Grande
CPX,PR,,,Culebra
CQF,FR,50.96083333,1.951388889,Calais
CQP,AU,,,Cape Flattery
CQS,BR,-11.57833333,-63.74833333,Costa Marques
CQT,CO,,,Caquetania
CRA,RO,44.31805556,23.88833333,Craiova
CRB,AU,,,Collarenebri
CRC,CO,4.758333333,-74.04416667,Cartago
CRD,AR,-44.21472222,-66.53444444,Comodoro Rivadavia
CRF,CF,,,Carnot
CRH,AU,,,Cherribah
CRI,BS,,,Crooked Island
CRJ,AU,,,Coorabie
CRK,PH,,,Angeles/Mabalacat
CRL,BE,50.46,4.452777778,Charleroi
CRM,PH,12.50222222,124.6358333,Catarman
CRN,GB,,,Cromarty
CRO,US,,,Corcoran
CRP,US,27.77027778,-96.49888889,Corpus Christi
CRQ,BR,-16.34944444,-38.74611111,Caravelas
CRR,AR,-28.13666667,-60.12666667,Ceres
CRS,US,32.02805556,-95.59944444,Corsicana
CRT,US,33.17833333,-90.12,Crossett
CRU,GD,,,Carriacou
CRV,IT,38.99666667,17.07916667,Crotone
CRW,US,38.37305556,-80.40694444,Charleston
CRX,US,34.91472222,-87.39666667,Corinth
CRY,AU,,,Carlton Hill
CRZ,TM,39.08333333,63.61333333,Chardzhou
CSA,GB,,,Colonsay Island
CSB,RO,45.42027778,22.25222222,Caransebes
CSC,CR,,,Canas
CSD,AU,,,Cresswell Downs
CSE,US,,,Crested Butte
CSF,FR,49.25361111,2.519166667,Creil
CSI,AU,-27.11666667,153.0666667,Casino
CSJ,VN,,,Cape Saint Jacques
CSK,SN,12.38888889,-15.25861111,Cap Skirring
CSL,US,35.23722222,-119.3575,San Luis Obispo
CSN,US,,,Carson City
CSP,US,,,Cape Spencer
CSQ,US,41.02138889,-93.63694444,Creston
CSR,CO,,,Casuarito
CSS,BR,,,Cassilandia
CST,FJ,,,Castaway
CSV,US,35.95111111,-84.91527778,Crossville
CSW,BR,,,Colorado Do Oeste
CSX,CN,28.18666667,113.2216667,Changsha
CSY,RU,56.09,47.34833333,Cheboksary
CTA,IT,37.466667,15.063889,Catania
CTB,US,48.60833333,-111.6238889,Cut Bank
CTC,AR,-27.40694444,-64.24888889,Catamarca
CTD,PA,,,Chitre
CTE,PA,,,Carti
CTG,CO,10.4425,-75.513056,Cartagena
CTH,US,,,Coatesville
CTI,AO,,,Cuito Cuanavale
CTK,US,,,Canton
CTL,AU,-25.58666667,146.2625,Charleville
CTM,MX,18.50444444,-87.67333333,Chetumal
CTN,AU,-14.555,145.185,Cooktown
CTO,US,,,Calverton
CTP,BR,,,Carutapera
CTQ,BR,,,Santa Vitoria
CTR,AU,,,Cattle Creek
CTT,FR,43.25222222,5.786111111,Le Castellet
CTU,CN,30.578333,103.946944,Chengdu
CTW,US,,,Cottonwood
CTX,US,,,Cortland
CTY,US,29.63527778,-82.89527778,Cross City
CTZ,US,34.97472222,-77.63444444,Clinton
CUA,MX,,,Ciudad Constitucion
CUC,CO,7.927222222,-71.48861111,Cucuta
CUD,AU,,,Caloundra
CUE,EC,-1.110555556,-77.01555556,Cuenca
CUF,IT,44.5475,7.623055556,Cuneo
CUH,US,35.94972222,-95.22722222,Cushing
CUI,CO,,,Currillo
CUJ,PH,,,Culion
CUK,BZ,,,Caye Caulker
CUL,MX,24.765,-106.525,Culiacan
CUM,VE,10.44916667,-63.86777778,Cumana
CUN,MX,21.036528,-86.877083,Cancun
CUO,CO,,,Caruru
CUP,VE,10.66,-62.73861111,Carupano
CUQ,AU,-12.23805556,143.1166667,Coen
CUR,CW,,,Curacao
CUS,US,,,Columbus
CUT,AR,-37.06666667,-68.75,Cutral Co
CUU,MX,28.70222222,-104.0372222,Chihuahua
CUV,VE,,,Casigua
CUW,US,,,Cube Cove
CUY,AU,-26.55333333,117.9183333,Cue
CUZ,PE,-12.46416667,-70.06138889,Cuzco
CVB,PG,,,Chungribu
CVC,AU,-32.29,136.505,Cleve
CVE,CO,9.399444444,-74.30777778,Covenas
CVF,FR,,,Courchevel
CVG,US,39.057499,-84.662086,Cincinnati
CVH,AR,,,Caviahue
CVI,AR,,,Caleta Olivia
CVJ,MX,18.83444444,-98.73861111,Cuernavaca
CVL,PG,,,Cape Vogel
CVM,MX,23.7025,-97.04416667,Ciudad Victoria
CVN,US,34.425,-102.9208333,Clovis
CVO,US,44.49694444,-122.7105556,Corvallis
CVQ,AU,-23.12,113.6716667,Carnarvon
CVR,US,,,Culver City
CVT,GB,52.36972222,-0.520277778,Coventry
CVU,PT,,,Corvo Island
CWB,BR,-25.531111,-49.175556,Curitiba
CWC,UA,48.25972222,25.98166667,Chernovtsy
CWG,US,,,Callaway Gardens
CWI,US,41.83111111,-89.67111111,Clinton
CWL,GB,51.396667,-3.343333,Cardiff
CWP,PK,,,Campbellpore
CWR,AU,,,Cowarie
CWS,US,,,Center Island
CWT,AU,-32.15527778,148.6488889,Cowra
CWW,AU,-34.00972222,146.3513889,Corowa
CXA,VE,7.616666667,-65.83333333,Caicara
CXB,BD,21.44972222,91.96472222,Cox's Bazar
CXC,US,,,Chitina
CXF,US,67.25194444,-149.7963889,Coldfoot
CXI,KI,1.991111111,-156.6413889,Christmas Island
CXJ,BR,-28.80444444,-50.81027778,Caxias Do Sul
CXL,US,32.66944444,-114.4869444,Calexico
CXN,SO,,,Candala
CXO,US,30.35222222,-94.58555556,Conroe
CXP,ID,39.19222222,-118.2675,Cilacap
CXQ,AU,,,Christmas Creek
CXT,AU,,,Charters Towers
CXY,BS,40.21694444,-75.14861111,Cat Cay
CYA,HT,,,Les Cayes
CYB,KY,19.68694444,-78.11722222,Cayman Brac
CYC,BZ,,,Caye Chapel
CYE,US,,,Crystal Lake
CYF,US,,,Chefornak
CYG,AU,-35.81722222,147.8877778,Corryong
CYI,TW,23.45444444,120.4033333,Chiayi
CYL,HN,,,Coyoles
CYM,US,,,Chatham
CYO,CU,21.61611111,-80.45444444,Cayo Largo Del Sur
CYP,PH,12.07694444,124.5477778,Calbayog
CYR,UY,-33.54861111,-56.23305556,Colonia
CYS,US,41.15555556,-103.1897222,Cheyenne
CYT,US,60.08194444,-141.5066667,Yakataga
CYU,PH,,,Cuyo
CYX,RU,,,Cherskiy
CYZ,PH,16.92972222,121.7530556,Cauayan
CZA,MX,,,Chichen Itza
CZB,BR,,,Cruz Alta
CZC,US,,,Copper Center
CZE,VE,11.41472222,-68.31833333,Coro
CZF,US,61.78166667,-165.9630556,Cape Romanzof
CZH,BZ,,,Corozal
CZJ,PA,,,Corazon de Jesus
CZK,US,,,Cascade Locks
CZL,DZ,36.28527778,6.619166667,Constantine
CZM,MX,20.52194444,-85.07083333,Cozumel
CZN,US,,,Chisana
CZO,US,,,Chistochina
CZP,US,,,Cape Pole
CZS,BR,-6.400555556,-71.23055556,Cruzeiro Do Sul
CZT,US,28.52277778,-98.17638889,Carrizo Springs
CZU,CO,9.3325,-74.715,Corozal
CZW,PL,,,Czestochowa
CZX,CN,,,Changzhou
CZY,AU,,,Cluny
CZZ,US,,,Campo
DAA,US,38.715,-76.81916667,Fort Belvoir
DAB,US,29.17972222,-80.94194444,Daytona Beach
DAC,BD,23.84333333,90.39777778,Dhaka
DAD,VN,16.04388889,108.2002778,Da Nang
DAE,IN,,,Daparizo
DAF,PG,,,Daup
DAG,US,34.85361111,-115.2133333,Daggett
DAH,YE,,,Dathina
DAI,IN,,,Darjeeling
DAJ,AU,,,Dauan Island
DAM,SY,33.41055556,36.51444444,Damascus
DAN,US,36.57277778,-78.66388889,Danville
DAP,NP,,,Darchula
DAR,TZ,-6.878111,39.202625,Dar Es Salaam
DAT,CN,,,Datong
DAU,PG,,,Daru
DAV,PA,8.390833333,-81.565,David
DAX,CN,,,Daxian
DAY,US,39.58888889,-83.77527778,Dayton
DAZ,AF,,,Darwaz
DBA,PK,28.875,64.40444444,Dalbandin
DBD,IN,,,Dhanbad
DBM,ET,10.33333333,37.76666667,Debre Marcos
DBN,US,32.56416667,-81.01472222,Dublin
DBO,AU,-31.78333333,148.5747222,Dubbo
DBP,PG,,,Debepare
DBQ,US,42.40194444,-89.29055556,Dubuque
DBS,US,,,Dubois
DBT,ET,11.96666667,38.0,Debre Tabor
DBV,HR,42.561389,18.268333,Dubrovnik
DBY,AU,,,Dalby
DCI,IT,39.35361111,8.971666667,Decimomannu
DCK,US,,,Dahl Creek
DCM,FR,,,Castres
DCR,US,,,Decatur
DCT,BS,,,Duncan Town
DCU,US,34.6525,-85.05472222,Decatur
DCY,CN,,,Daocheng
DDC,US,37.76305556,-98.03472222,Dodge City
DDG,CN,,,Dandong
DDI,AU,,,Daydream Island
DDM,PG,,,Dodoima
DDN,AU,,,Delta Downs
DDP,PR,,,Dorado
DDU,PK,,,Dadu
DEB,HU,47.48888889,21.61527778,Debrecen
DEC,US,39.83444444,-87.13444444,Decatur
DED,IN,29.06694444,-80.71638889,Dehra Dun
DEH,US,43.27527778,-90.26083333,Decorah
DEI,SC,,,Denis Island
DEL,IN,28.5665,77.103089,Delhi
DEM,ET,,,Dembidollo
DEN,US,39.838816,-104.671865,Denver
DEO,US,,,Dearborn
DEP,IN,,,Deparizo
DER,PG,,,Derim
DES,SC,-4.3,53.65,Desroches
DEZ,SY,35.28527778,40.17583333,Deirezzor
DFI,US,41.3375,-83.57138889,Defiance
DFP,AU,,,Drumduff
DFW,US,32.874271,-97.015658,Dallas/ Fort Worth
DGA,BZ,,,Dangriga
DGB,US,,,Danger Bay
DGC,ET,,,Degahbur
DGE,AU,-31.4375,149.6111111,Mudgee
DGG,PG,68.03194444,-161.1008333,Daugo
DGN,US,,,Dahlgren
DGO,MX,24.12583333,-103.4727778,Durango
DGP,LV,55.94472222,26.665,Daugavpils
DGR,NZ,,,Dargaville
DGT,PH,9.334722222,123.3008333,Dumaguete
DGU,BF,12.46666667,-2.516666667,Dedougou
DGW,US,42.79694444,-104.6141667,Douglas
DHA,SA,26.26416667,50.15222222,Dhahran
DHD,AU,,,Durham Downs
DHI,NP,28.75333333,80.58194444,Dhangarhi
DHL,YE,,,Dhala
DHM,IN,,,Dharamshala
DHN,US,31.32083333,-84.55055556,Dothan
DHR,NL,52.92361111,4.780555556,Den Helder
DHT,US,36.0225,-101.4527778,Dalhart
DIB,IN,27.48083333,95.01777778,Dibrugarh
DIC,ZR,,,Dili
DIE,MG,-11.64888889,49.29416667,Antsiranana
DIJ,FR,47.26555556,5.094722222,Dijon
DIK,US,46.79722222,-101.1983333,Dickinson
DIL,ID,-7.453611111,125.5247222,Dili
DIM,CI,6.6,-3.433333333,Dimbokro
DIN,VN,,,Dien Bien Phu
DIO,US,,,Diomede Island
DIP,BF,,,Diapaga
DIQ,BR,,,Divinopolis
DIR,ET,9.637777778,41.84861111,Dire Dawa
DIS,CG,-3.783333333,12.66666667,Dolisie
DIU,IN,,,Diu
DIV,CI,,,Divo
DIY,TR,37.8925,40.20111111,Diyarbakir
DJA,BJ,,,Djougou
DJB,ID,-0.364444444,103.6430556,Jambi
DJE,TN,33.87555556,10.77722222,Djerba
DJG,DZ,24.29305556,9.451944444,Djanet
DJJ,ID,-1.428055556,140.5113889,Jayapura
DJM,CG,-1.466666667,14.75,Djambala
DJN,US,,,Delta Junction
DJO,CI,6.792777778,-5.526944444,Daloa
DJU,IS,,,Djupivogur
DKI,AU,,,Dunk Island
DKK,US,42.49333333,-78.72805556,Dunkirk
DKR,SN,14.739708,-17.490225,Dakar
DKS,RU,,,Dikson
DKV,AU,,,Docker River
DLA,CM,4.006081,9.719481,Douala
DLB,PG,,,D'Albertis
DLC,CN,38.965556,121.538333,Dalian
DLD,NO,,,Geilo
DLE,FR,47.0425,5.434722222,Dole
DLG,US,59.04444444,-157.4947222,Dillingham
DLH,US,46.84194444,-91.80638889,Duluth/Superior
DLI,VN,11.75,108.3733333,Dalat
DLK,AU,,,Dulkaninna
DLL,US,43.52194444,-88.22916667,Dillon
DLM,TR,36.7125,28.79138889,Dalaman
DLN,US,45.25527778,-111.4475,Dillon
DLO,US,35.74555556,-118.7636111,Dolomi
DLS,US,45.61833333,-120.8327778,The Dalles
DLV,AU,,,Delissaville
DLY,VU,,,Dillons Bay
DLZ,MN,40.27944444,-82.88527778,Dalanzadgad
DMB,KZ,,,Dzhambul
DMD,AU,-16.06,138.8216667,Doomadgee Mission
DMM,SA,26.471111,49.797778,Dammam
DMN,US,32.26222222,-106.2794444,Deming
DMO,US,38.70722222,-92.82416667,Sedalia
DMR,YE,,,Dhamar
DMT,BR,,,Diamantino
DMU,IN,25.88333333,93.77111111,Dimapur
DNB,AU,,,Dunbar
DNC,CI,,,Danane
DND,GB,56.4525,-2.974166667,Dundee
DNF,LY,,,Derna
DNH,CN,,,Dunhuang
DNI,SD,,,Wad Medani
DNK,UA,48.35722222,35.10055556,Dnipropetrovsk
DNM,AU,,,Denham
DNN,US,34.72277778,-83.13,Dalton
DNO,BR,-10.38305556,-45.14944444,Dianopolis
DNP,NP,,,Dang
DNQ,AU,-34.44055556,144.9463889,Deniliquin
DNR,FR,48.5875,-1.920277778,Dinard
DNS,US,41.98638889,-94.61972222,Denison
DNU,PG,,,Dinangat
DNV,US,40.19944444,-86.40472222,Danville
DNX,SD,,,Dinder
DNZ,TR,37.78777778,29.705,Denizli
DOA,MG,,,Doany
DOB,ID,,,Dobo
DOC,GB,,,Dornoch
DOD,TZ,-5.829722222,35.74916667,Dodoma
DOE,SR,,,Djoemoe
DOF,US,,,Dora Bay
DOG,SD,19.1525,30.43,Dongola
DOH,QA,25.261125,51.565056,Doha
DOI,PG,,,Doini
DOK,UA,48.075,37.725556,Donetsk
DOL,FR,49.36333333,0.159722222,Deauville
DOM,DM,15.38611111,-60.59944444,Dominica
DON,GT,,,Dos Lagunas
DOO,PG,,,Dorobisoro
DOP,NP,,,Dolpa
DOR,BF,,,Dori
DOS,PG,,,Dios
DOU,BR,-21.80083333,-53.09194444,Dourados
DOV,US,39.12944444,-74.53416667,Dover-Cheswold
DOX,AU,,,Dongara
DPE,FR,49.8825,1.085277778,Dieppe
DPG,US,40.19722222,-111.065,Dugway
DPK,US,,,Deer Park
DPL,PH,8.601111111,123.3430556,Dipolog
DPO,AU,-40.83027778,146.4302778,Devonport
DPS,ID,-7.2525,115.1691667,Denpasar
DPU,PG,,,Dumpu
DQA,CN,,,Daqing Shi
DRA,US,,,Mercury
DRB,AU,-16.63,123.6605556,Derby
DRC,AO,,,Dirico
DRE,US,,,Drummond Island
DRF,US,,,Drift River
DRG,US,,,Deering
DRH,ID,,,Dabra
DRI,US,30.83166667,-92.66027778,De Ridder
DRJ,SR,,,Drietabbetje
DRM,GR,,,Drama
DRN,AU,,,Dirranbandi
DRO,US,37.15138889,-106.2463889,Durango
DRR,AU,,,Durrie
DRS,DE,51.134344,13.768,Dresden
DRT,US,29.37416667,-99.07305556,Del Rio
DRU,US,,,Drummond
DRW,AU,-11.58527778,130.8766667,Darwin
DSC,CM,,,Dschang
DSD,GP,,,Desirade
DSE,ET,,,Dessie
DSG,PH,,,Dilasag
DSI,US,,,Destin
DSK,PK,31.90916667,70.89638889,Dera Ismail Khan
DSL,SL,,,Daru
DSM,US,41.53388889,-92.33694444,Des Moines
DSN,CN,,,Dongsheng
DSV,US,,,Dansville
DTA,US,39.38055556,-111.4925,Delta
DTD,ID,,,Datadawai
DTE,PH,,,Daet
DTH,US,,,Death Valley
DTL,US,46.825,-94.11444444,Detroit Lakes
DTM,DE,51.519444,7.615278,Dortmund
DTR,US,,,Decatur Island
DTT,US,42.207258,-83.356337,Detroit
DUA,US,33.94222222,-95.60555556,Durant
DUB,IE,53.421333,-6.270075,Dublin
DUC,US,34.47111111,-96.04027778,Duncan
DUD,NZ,-44.07194444,170.1983333,Dunedin
DUE,AO,,,Dundo
DUF,US,,,Duck
DUG,US,31.3425,-108.4936111,Douglas
DUI,DE,,,Duisburg
DUJ,US,41.17805556,-77.10138889,Dubois
DUK,ZA,,,Dukuduk
DUM,ID,1.61,101.4316667,Dumai
DUN,GL,,,Dundas
DUQ,CA,,,Duncan
DUR,ZA,-29.614444,31.116389,Durban
DUS,DE,51.280925,6.757311,Dusseldorf
DUT,US,53.9,-165.4566667,Dutch Harbor
DVA,RO,,,Deva
DVL,US,48.11444444,-97.09166667,Devils Lake
DVN,US,41.61027778,-89.41166667,Davenport
DVO,PH,7.125277778,125.6455556,Davao
DVP,AU,,,Davenport Downs
DVR,AU,,,Daly River
DWA,MW,,,Dwangwa
DWB,MG,-15.9,45.36666667,Soalala
DXA,FR,,,Deux Alpes
DXB,AE,25.252778,55.364444,Dubai
DXD,AU,,,Dixie
DXR,US,41.37138889,-72.51805556,Danbury
DYA,AU,-21.37777778,148.3638889,Dysart
DYG,CN,,,Dayong
DYL,US,,,Doylestown
DYM,AU,-13.62305556,-55.59944444,Diamantina Lake
DYR,RU,64.735,177.7383333,Anadyr
DYU,TJ,38.54333333,68.825,Dushanbe
DYW,AU,,,Daly Waters
DZA,YT,-11.19333333,45.28055556,Dzaoudzi
DZI,CO,,,Codazzi
DZN,KZ,47.70888889,67.73916667,Dzhezkazgan
DZO,UY,-32.64361111,-55.50388889,Durazno
DZU,CN,,,Dazu
EAA,US,64.77805556,-140.8505556,Eagle
EAB,YE,16.00833333,43.17777778,Abbse
EAE,VU,,,Emae
EAM,SA,17.61138889,44.41888889,Nejran
EAN,US,42.05527778,-103.0713889,Wheatland
EAR,US,40.72694444,-98.99333333,Kearney
EAS,ES,43.35638889,-0.209444444,San Sebastian
EAT,US,47.39805556,-119.7944444,Wenatchee
EAU,US,44.86555556,-90.51583333,Eau Clair
EBA,IT,42.76111111,10.23972222,Elba Island
EBB,UG,0.0425,32.443611,Entebbe
EBD,SD,13.15277778,30.2325,El Obeid
EBG,CO,7.595,-73.19111111,El Bagre
EBJ,DK,55.52583333,8.553333333,Esbjerg
EBL,IQ,36.237611,43.963158,Erbil
EBM,TN,31.70277778,9.2575,El-Borma
EBN,MH,,,Ebadon
EBO,MH,,,Ebon
EBS,US,42.43638889,-92.13111111,Webster City
EBU,FR,45.53388889,4.297222222,Saint Etienne
EBW,CM,2.85,11.18333333,Ebolowa
ECA,US,,,East Tawas
ECG,US,36.26055556,-75.82555556,Elizabeth City
ECH,AU,,,Echuca
ECN,CY,35.14888889,33.49972222,Ercan
ECO,CO,,,El Encanto
ECP,US,,,Panama City
ECR,CO,,,El Charco
ECS,US,43.88527778,-103.6822222,Newcastle
EDA,US,,,Edna Bay
EDB,SD,,,Eldebba
EDD,AU,,,Erldunda
EDE,US,36.0275,-75.43305556,Edenton
EDG,US,39.39194444,-75.70916667,Edgewood
EDI,GB,55.95,-3.3725,Edinburgh
EDK,US,,,El Dorado
EDL,KE,0.404444444,35.23888889,Eldoret
EDM,FR,46.70222222,-0.618333333,La Roche Les Ajoncs
EDO,TR,,,Edremit
EDQ,HN,,,Erandique
EDR,AU,,,Edward River
EED,US,34.76611111,-113.3769444,Needles
EEK,US,60.21361111,-161.9561111,Eek
EEN,US,42.89833333,-71.72944444,Keene
EFB,US,,,Eight Fathom Bight
EFG,PG,,,Efogi
EFK,US,44.88861111,-71.77111111,Newport
EFL,GR,38.12,20.50055556,Kefallinia
EFO,US,,,East Forks
EFW,US,,,Jefferson
EGA,PG,,,Engati
EGC,FR,44.82416667,0.520555556,Bergerac
EGE,US,39.6425,-105.0841667,Vail/ Eagle County
EGL,ET,,,Neghelli
EGM,SB,,,Sege
EGN,SD,13.48333333,22.4725,Geneina
EGO,RU,50.64333333,36.59166667,Belgorod
EGP,US,,,Eagle Pass
EGS,IS,65.28333333,-13.59861111,Egilsstadir
EGV,US,45.93222222,-88.73194444,Eagle River
EGX,US,,,Egegik
EHL,AR,-40.03333333,-70.48333333,El Bolson
EHM,US,,,Cape Newenham
EHT,US,,,East Hartford
EIA,PG,,,Eia
EIE,RU,,,Eniseysk
EIH,AU,,,Einasleigh
EIN,NL,51.45,5.374444444,Eindhoven
EIS,VG,18.44555556,-63.45833333,Beef Island
EIY,IL,,,Ein Yahav
EIZ,DE,,,Eisenach
EJA,CO,7.024166667,-72.19333333,Barrancabermeja
EJH,SA,26.19833333,36.47583333,Wedjh
EJQ,CN,,,Shiyan
EKA,US,,,Eureka
EKB,KZ,,,Ekibastuz
EKD,AU,,,Elkedra
EKE,GY,,,Ekereku
EKI,US,,,Elkhart
EKN,US,38.88944444,-78.14305556,Elkins
EKO,US,40.82472222,-114.2083333,Elko
EKT,SE,59.35222222,16.70833333,Eskilstuna
EKX,US,37.68583333,-84.075,Elizabethtown
ELA,US,29.60055556,-95.67805556,Eagle Lake
ELB,CO,9.044444444,-72.02666667,El Banco
ELC,AU,-11.98,135.57,Elcho Island
ELD,US,33.22083333,-91.18694444,El Dorado
ELE,PA,,,El Real
ELF,SD,13.61472222,25.32444444,El Fasher
ELG,DZ,30.56888889,2.864722222,El Golea
ELH,BS,25.47555556,-75.31888889,North Eleuthera
ELI,US,64.61472222,-161.7297222,Elim
ELJ,CO,,,El Recreo
ELK,US,35.43055556,-98.60583333,Elk City
ELL,ZA,,,Ellisras
ELM,US,42.15972222,-75.10861111,Elmira/Corning
ELN,US,47.03277778,-119.4694444,Ellensburg
ELO,AR,-25.6,-53.43333333,Eldorado
ELP,US,31.80722222,-105.6225,El Paso
ELQ,SA,26.30277778,43.77388889,Gassim
ELR,ID,,,Elelim
ELS,ZA,-33.035,27.821111,East London
ELT,EG,28.21666667,33.635,Tour Sinai
ELU,DZ,33.51305556,6.7825,El Oued
ELV,US,,,Elfin Cove
ELW,US,,,Ellamar
ELY,US,39.29944444,-113.1583333,Ely
ELZ,US,42.10944444,-76.01027778,Wellsville
EMA,GB,52.83111111,-0.671944444,East Midlands
EMD,AU,-22.4325,148.1791667,Emerald
EME,DE,53.39083333,7.225555556,Emden
EMG,ZA,,,Empangeni
EMI,PG,,,Emirau
EMK,US,,,Emmonak
EMM,US,41.82388889,-109.4430556,Kemmerer
EMN,MR,16.62194444,-6.685555556,Nema
EMO,PG,,,Emo
EMP,US,38.33055556,-95.81027778,Emporia
EMS,PG,,,Embessa
EMT,US,,,El Monte
EMX,AR,-41.96666667,-70.85,El Maiten
EMY,EG,,,El Minya
ENA,US,60.57305556,-150.7552778,Kenai
ENB,AU,,,Eneabba
ENE,ID,,,Ende
ENF,FI,68.36444444,23.4275,Enontekio
ENH,CN,,,Enshi
ENI,PH,,,El Nido
ENJ,GT,,,El Naranjo
ENK,GB,54.39861111,-6.348055556,Enniskillen
ENL,US,38.515,-88.90888889,Centralia
ENN,US,64.54722222,-148.9261111,Nenana
ENO,PY,-26.7,-54.08333333,Encarnacion
ENS,NL,52.27583333,6.889166667,Enschede
ENT,MH,,,Eniwetok Island
ENU,NG,6.474166667,7.561666667,Enugu
ENV,US,40.71861111,-113.9691667,Wendover
ENW,US,42.59555556,-86.07222222,Kenosha
ENY,CN,36.63833333,109.555,Yan'An
EOI,GB,,,Eday
EOK,US,40.45972222,-90.57166667,Keokuk
EOR,VE,,,El Dorado
EOS,US,36.81055556,-93.60833333,Neosho
EOZ,VE,,,Elorza
EPG,US,,,Weeping Water
EPH,US,47.30805556,-118.4833333,Ephrata
EPI,VU,,,Epk
EPK,CY,,,Episkopi
EPL,FR,48.325,6.066666667,Epinal
EPN,CG,,,Epena
EPR,AU,-32.315,121.8233333,Esperance
EPT,PG,,,Eliptamin
EQS,AR,-41.09611111,-70.86444444,Esquel
ERA,SO,10.635,47.38333333,Erigavo
ERB,AU,,,Ernabella
ERC,TR,39.71305556,39.52055556,Erzincan
ERD,UA,46.815,36.75833333,Berdyansk
ERE,PG,,,Erave
ERF,DE,50.97972222,10.95805556,Erfurt
ERH,MA,31.94805556,-3.599444444,Errachidia
ERI,US,42.08194444,-79.82388889,Erie
ERM,BR,-26.34,-51.72388889,Erechim
ERN,BR,-5.3625,-68.11694444,Eirunepe
ERO,US,,,Eldred Rock
ERR,US,,,Errol
ERT,MN,,,Erdenet
ERU,PG,,,Erume
ERV,US,29.97666667,-98.91472222,Kerrville
ERZ,TR,39.95527778,41.16916667,Erzurum
ESA,PG,,,Esa'Ala
ESC,US,45.7225,-86.90638889,Escanaba
ESD,US,,,Eastsound
ESE,MX,31.79472222,-115.3991667,Ensenada
ESF,US,31.39472222,-91.70444444,Alexandria
ESG,PY,,,Mariscal Estigarriba
ESH,GB,50.83555556,-0.269444444,Shoreham By Sea
ESI,BR,,,Espinosa
ESK,TR,39.78222222,30.58277778,Eskisehir
ESL,RU,46.37333333,44.33166667,Elista
ESM,EC,0.978611111,-78.37333333,Esmeraldas
ESN,US,38.80416667,-75.93111111,Easton
ESO,US,,,Espanola
ESP,US,,,East Stroudsburg
ESR,CL,-25.69166667,-68.24833333,El Salvador
ESS,DE,51.40222222,6.937222222,Essen
EST,US,43.40722222,-93.25361111,Estherville
ESW,US,,,Easton
ETB,US,43.42194444,-87.87222222,West Bend
ETD,AU,,,Etadunna
ETE,ET,,,Genda Wuha
ETH,IL,29.55833333,34.95888889,Elat
ETN,US,32.41472222,-97.19055556,Eastland
ETS,US,,,Enterprise
ETZ,FR,48.97805556,6.246388889,Metz/Nancy
EUA,TO,,,Eua
EUC,AU,,,Eucla
EUE,US,,,Eureka
EUF,US,31.95111111,-84.87111111,Eufaula
EUG,US,44.12444444,-122.7880556,Eugene
EUM,DE,54.07861111,9.940277778,Neumuenster
EUN,MA,27.15166667,-12.78083333,Laayoune
EUO,CO,,,Paratebueno
EUX,AN,,,Saint Eustatius
EVA,US,,,Evadale
EVD,AU,,,Eva Downs
EVE,NO,16.678101,68.491302,"Harstad-Narvik, Evenes Airport"
EVG,SE,62.04777778,14.42416667,Sveg
EVH,AU,,,Evans Head
EVM,US,47.425,-91.50194444,Eveleth
EVN,AM,40.147222,44.395833,Yerevan
EVV,US,38.03833333,-86.46916667,Evansville
EVW,US,41.27472222,-110.9655556,Evanston
EVX,FR,49.02861111,1.22,Evreux
EWB,US,41.67638889,-69.04222222,New Bedford
EWE,ID,,,Ewer
EWI,ID,,,Enarotali
EWK,US,38.05805556,-96.72555556,Newton
EWN,US,35.07277778,-76.95722222,New Bern
EWO,CG,-0.883333333,14.8,Ewo
EWY,GB,,,Newbury
EXI,US,,,Excursion
EXM,AU,,,Exmouth Gulf
EXT,GB,50.73444444,-2.586111111,Exeter
EYL,ML,15.13333333,-9.433333333,Yelimane
EYP,CO,,,El Yopal
EYR,US,,,Yerington
EYS,KE,,,Eliye Springs
EYW,US,24.55611111,-80.24055556,Key West
EZS,TR,38.59777778,39.28138889,Elazig
FAA,GN,10.00583333,-9.24,Faranah
FAB,GB,51.27527778,-0.755833333,Farnborough
FAC,PF,,,Faaite Island
FAE,FO,62.06361111,-6.723055556,Faroe Islands
FAF,US,,,Fort Eustis
FAG,IS,,,Fagurholsmyri
FAH,AF,32.36305556,62.1675,Farah
FAI,US,64.815,-146.1436111,Fairbanks
FAJ,PR,,,Fajardo
FAK,US,,,False Island
FAL,US,,,Roma
FAM,US,37.76083333,-89.57138889,Farmington
FAN,NO,58.10027778,6.625,Farsund
FAO,PT,37.014425,-7.965911,Faro
FAR,US,46.92055556,-95.18444444,Fargo
FAS,IS,,,Faskrudsfjordur
FAT,US,36.77611111,-118.2819444,Fresno
FAV,PF,-15.9475,-144.3469444,Fakarava
FAY,US,34.99111111,-77.11972222,"Fayetteville, NC"
FBD,AF,37.12138889,70.51805556,Faizabad
FBE,BR,,,Francisco Beltrao
FBL,US,44.3275,-92.68944444,Faribault
FBM,CD,,,Lubumbashi
FBR,US,41.39333333,-109.5938889,Fort Bridger
FBY,US,,,Fairbury
FCA,US,48.31027778,-113.7441667,Kalispell
FCB,ZA,-27.175,27.90833333,Ficksburg
FCY,US,,,Forrest City
FDE,NO,61.39111111,5.756944444,Forde
FDF,MQ,14.59222222,-59.00361111,Fort De France
FDH,DE,47.671317,9.511486,Friedrichshafen
FDK,US,39.4175,-76.62583333,Frederick
FDR,US,34.35194444,-97.01611111,Frederick
FDU,ZR,-2.7,17.38333333,Bandundu
FDY,US,41.01194444,-82.33138889,Findlay
FEA,GB,,,Fetlar
FEB,NP,,,Sanfebagar
FEG,UZ,40.35833333,71.745,Fergana
FEK,CI,,,Ferkessedougou
FEL,DE,48.20944444,11.26777778,Fuerstenfeldbruck
FEN,BR,-2.145277778,-31.57166667,Fernando De Noronha
FEP,US,42.24611111,-88.41805556,Freeport
FER,KE,,,Fergusons Gulf
FET,US,41.44888889,-95.48,Fremont
FEZ,MA,33.92722222,-3.022222222,Fez
FFA,US,,,Kill Devil
FFD,GB,51.68194444,-0.21,Fairford
FFL,US,41.05555556,-90.01916667,Fairfield
FFM,US,46.28416667,-95.84333333,Fergus Falls
FFT,US,38.18194444,-83.09388889,Frankfort
FFU,CL,,,Futaleufu
FGD,MR,22.66666667,-11.26666667,F'Derik
FGL,NZ,,,Fox Glacier
FGU,PF,-14.18,-139.1141667,Fangatau
FHU,US,31.58833333,-109.6558333,Fort Huachuca/Sierra Vista
FHZ,PF,-14.00805556,-139.8352778,Fakahina
FIC,US,,,Fire Cove
FID,US,,,Fishers Island
FIE,GB,,,Fair Isle
FIG,GN,10.35166667,-12.59333333,Fria
FIH,CD,-4.38575,15.444569,Kinshasa
FIK,AU,,,Finke
FIL,US,,,Fillmore
FIN,PG,,,Finschhafen
FIV,US,,,Five Finger
FIZ,AU,-17.81833333,125.5583333,Fitzroy Crossing
FJR,AE,25.11222222,56.32416667,Al-Fujairah
FKB,DE,48.77916667,8.080277778,Karlsruhe
FKH,GB,,,Fakenham
FKI,ZR,0.481666667,25.33777778,Kisangani
FKJ,JP,36.14277778,136.2238889,Fukui
FKL,US,41.37777778,-78.13972222,Franklin
FKN,US,36.69805556,-75.09638889,Franklin
FKQ,ID,,,Fak Fak
FKS,JP,37.2275,140.4280556,Fukushima
FLA,CO,1.588888889,-74.43583333,Florencia
FLB,BR,-5.153888889,-42.92194444,Floriano
FLC,AU,,,Falls Creek
FLD,US,43.77111111,-87.51166667,Fond Du Lac
FLF,DE,54.77333333,9.378611111,Flensburg
FLG,US,35.14027778,-110.3308333,Flagstaff
FLH,GB,,,Flotta
FLI,IS,,,Flateyri
FLJ,US,,,Falls Bay
FLL,US,26.066812,-80.140428,Fort Lauderdale
FLM,PY,,,Filadelfia
FLN,BR,-27.670278,-48.5525,Florianopolis
FLO,US,34.18527778,-78.27611111,Florence
FLP,US,36.29083333,-91.41,Flippin
FLR,IT,43.81,11.203889,Florence
FLS,AU,-39.90861111,147.9927778,Flinders Island
FLT,US,,,Flat
FLW,PT,39.45805556,-30.86777778,Flores Island
FLY,AU,,,Finley
FMA,AR,-25.78722222,-57.77194444,Formosa
FMC,US,,,Five Mile
FME,US,,,Fort Meade
FMG,CR,,,Flamingo
FMH,US,41.65888889,-69.47722222,Falmouth
FMI,ZR,-4.124722222,29.24916667,Kalemie
FMM,DE,,,Memmingen
FMN,US,36.74111111,-107.7702778,Farmington
FMO,DE,52.134642,7.684831,Munster
FMS,US,,,Fort Madison
FMY,US,26.522381,-81.753723,Fort Myers
FNA,SL,8.616444,-13.195489,Freetown
FNC,PT,32.697889,-16.774453,Funchal
FNE,PG,,,Fane
FNG,BF,,,Fada N'Gourma
FNH,ET,9.583333333,37.35,Fincha
FNI,FR,43.75722222,4.416111111,Nimes
FNJ,KP,39.245,125.6758333,Pyongyang
FNK,US,,,Fin Creek
FNL,US,40.45166667,-104.9888889,Fort Collins
FNR,US,,,Funter Bay
FNT,US,42.96527778,-82.25638889,Flint
FOA,GB,,,Foula
FOB,US,,,Fort Bragg
FOC,CN,25.93333333,119.6616667,Fuzhou
FOD,US,42.55111111,-93.80833333,Fort Dodge
FOG,IT,41.43333333,15.53472222,Foggia
FOK,US,40.84361111,-71.36833333,Westhampton
FOM,CM,5.644166667,10.75638889,Foumban
FOO,ID,,,Numfoor
FOP,US,,,Forest Park
FOR,BR,-3.775833,-38.532222,Fortaleza
FOS,AU,,,Forrest
FOT,AU,40.55388889,-123.8675,Forster
FOU,GA,-0.716666667,10.61666667,Fougamou
FOX,US,,,Fox
FOY,LR,,,Foya
FPO,BS,26.55861111,-77.30472222,Freeport
FPR,US,27.49722222,-79.6275,Fort Pierce
FPY,US,,,Perry
FRA,DE,50.033333,8.570556,Frankfurt
FRB,AU,-32.63638889,147.935,Forbes
FRC,BR,-19.40972222,-46.6175,Franca
FRD,US,,,Friday Harbor
FRE,SB,,,Fera Island
FRG,US,40.72861111,-72.58666667,Farmingdale
FRH,US,38.50611111,-85.36305556,French Lick
FRI,US,39.0525,-95.23555556,Fort Riley
FRJ,FR,,,Frejus
FRK,SC,,,Fregate Island
FRL,IT,44.19555556,12.06972222,Forli
FRM,US,43.64388889,-93.58444444,Fairmont
FRO,NO,61.58361111,5.024722222,Floro
FRP,US,,,Fresh Water Bay
FRQ,PG,,,Feramin
FRR,US,,,Front Royal
FRS,GT,16.91888889,-88.12361111,Flores
FRT,CL,,,Frutillar
FRU,KG,43.06166667,74.47833333,Bishkek
FRW,BW,-20.83944444,27.48194444,Francistown
FRY,US,,,Fryeburg
FRZ,DE,51.11444444,9.285833333,Fritzlar
FSC,FR,41.50194444,9.096666667,Figari
FSD,US,43.58194444,-95.25833333,Sioux Falls
FSI,US,34.64972222,-97.59805556,Fort Sill
FSK,US,37.79833333,-93.23083333,Fort Scott
FSL,AU,,,Fossil Downs
FSM,US,35.33638889,-93.63277778,Fort Smith
FSN,US,,,Fort Sheridan
FSP,PM,46.76305556,-55.82583333,Saint Pierre
FST,US,30.915,-101.0872222,Fort Stockton
FSU,US,34.48333333,-103.7830556,Fort Sumner
FSZ,JP,40.73333333,140.6886111,Shizuoka
FTA,VU,,,Futuna Island
FTE,AR,-50.3402138,-72.27050780000002,El Calafate
FTI,AS,,,Fitiuta
FTK,US,37.90694444,-84.02805556,Fort Knox
FTL,US,,,Fortuna Ledge
FTU,MG,-24.96194444,46.95611111,Fort Dauphin
FTX,CG,-0.55,15.95,Owando
FUB,PG,,,Fulleborn
FUE,ES,28.45277778,-12.13611111,Fuerteventura
FUG,CN,,,Fuyang
FUJ,JP,32.66638889,128.8327778,Fukue
FUK,JP,33.58444444,130.4516667,Fukuoka
FUL,US,,,Fullerton
FUM,PG,,,Fuma
FUN,TV,-7.475,179.1955556,Funafuti
FUO,CN,,,Fuoshan
FUT,WF,-13.68861111,-177.9338889,Futuna
FWA,US,40.97833333,-84.805,"Fort Wayne, IN"
FWL,US,62.50638889,-152.1063889,Farewell
FWM,GB,,,Fort William
FXM,US,,,Flaxman Island
FXO,MZ,-13.185,36.53,Cuamba
FXY,US,43.23472222,-92.37611111,Forest City
FYM,US,35.05944444,-85.43611111,Fayetteville
FYN,CN,,,Fuyun
FYT,TD,17.91611111,19.10888889,Faya
FYU,US,66.57138889,-144.7497222,Fort Yukon
FYV,US,36.005,-93.83,"Fayetteville, AR"
FZO,GB,51.51944444,-1.409166667,Filton
GAA,CO,,,Guamal
GAB,US,,,Gabbs
GAC,HN,,,Gracias
GAD,US,33.9725,-85.91111111,Gadsden
GAE,TN,33.7325,9.916111111,Gabes
GAF,TN,34.41555556,8.813611111,Gafsa
GAG,US,36.29527778,-98.22361111,Gage
GAH,AU,-24.385,151.62,Gayndah
GAI,US,39.16833333,-76.83416667,Gaithersburg
GAJ,JP,38.41194444,140.3711111,Yamagata
GAK,US,,,Gakona
GAL,US,64.73611111,-155.0627778,Galena
GAM,US,63.76666667,-170.2672222,Gambell
GAO,CU,20.08527778,-74.84166667,Guantanamo
GAP,PG,,,Gusap
GAQ,ML,16.24833333,0.005833333,Gao
GAR,PG,,,Garaina
GAS,KE,,,Garissa
GAT,FR,,,Gap
GAU,IN,26.10472222,91.58527778,Guwahati
GAV,ID,,,Gag Island
GAW,MM,,,Gangaw
GAX,GA,,,Gamba
GAY,IN,24.74805556,84.9425,Gaya
GAZ,PG,,,Guasopa
GBA,VU,,,Big Bay
GBB,DZ,,,Gara Djebilet
GBC,PG,,,Gasuke
GBD,US,38.34416667,-97.14083333,Great Bend
GBE,BW,-23.44416667,25.91888889,Gaborone
GBF,PG,,,Negarbo
GBG,US,40.93777778,-89.56888889,Galesburg
GBH,US,68.47944444,-148.5102778,Galbraith
GBI,BS,,,Grand Bahama
GBJ,GP,15.86861111,-60.72777778,Marie Galante
GBK,SL,,,Gbangbatok
GBL,AU,,,Goulburn Island
GBM,SO,,,Garbaharey
GBP,AU,,,Gamboola
GBR,US,42.18416667,-72.59694444,Great Barrington
GBS,NZ,,,Port Fitzroy
GBU,SD,,,Khashm El Girba
GBV,AU,,,Gibb River
GBZ,NZ,,,Great Barrier
GCA,CO,,,Guacamaya
GCC,US,44.34888889,-104.4608333,Gillette
GCI,GB,49.435,-1.398055556,Guernsey
GCK,US,37.9275,-99.27583333,Garden City
GCM,KY,19.29222222,-80.64083333,Grand Cayman
GCN,US,35.95222222,-111.8530556,Grand Canyon
GCY,US,36.19277778,-81.185,Greenville
GDA,CF,,,Gounda
GDD,AU,,,Gordon Downs
GDE,ET,,,Gode
GDG,RU,,,Magdagachi
GDH,US,,,Golden Horn
GDI,CF,,,Gordil
GDJ,ZR,,,Gandajika
GDL,MX,20.5218,-103.311167,Guadalajara
GDM,US,42.54972222,-71.98416667,Gardner
GDN,PL,54.3775,18.466111,Gdansk
GDO,VE,7.210833333,-69.24361111,Guasdualito
GDP,BR,-5.217777778,-42.41777778,Guadalupe
GDQ,ET,12.53222222,37.43166667,Gondar
GDT,TC,21.44444444,-70.85777778,Grand Turk
GDV,US,47.13861111,-103.1930556,Glendive
GDW,US,43.97055556,-83.52527778,Gladwin
GDX,RU,59.91,150.7183333,Magadan
GDZ,RU,44.58166667,38.01333333,Gelendzik
GEB,ID,,,Gebe
GEC,CY,35.23333333,33.73277778,Gecitkale
GED,US,38.68777778,-74.64166667,Georgetown
GEE,AU,,,George Town
GEF,SB,,,Geva
GEG,US,47.61888889,-116.465,Spokane
GEI,PG,,,Green Islands
GEK,US,,,Ganes Creek
GEL,BR,-27.71777778,-53.83111111,Santo Angelo
GEO,GY,6.498888889,-57.74583333,Georgetown
GER,CU,21.83472222,-81.21611111,Nueva Gerona
GES,PH,6.058055556,125.0961111,General Santos
GET,AU,-27.20388889,114.7075,Geraldton
GEV,SE,67.13305556,20.81222222,Gallivare
GEW,PG,,,Gewoya
GEX,AU,,,Geelong
GEY,US,44.51666667,-107.9172222,Greybull
GFB,US,,,Togiak Fish
GFD,US,,,Greenfield
GFE,AU,,,Grenfell
GFF,AU,-33.75,146.0666667,Griffith
GFK,US,47.94722222,-96.82638889,Grand Forks
GFL,US,43.34111111,-72.38972222,Glens Falls
GFN,AU,-28.24,153.03,Grafton
GFO,GY,,,Bartica
GFR,FR,,,Granville
GFY,NA,-18.4,18.13333333,Grootfontein
GGC,AO,,,Lumbala
GGD,AU,,,Gregory Downs
GGE,US,33.31138889,-78.67972222,Georgetown
GGG,US,32.38388889,-93.28861111,Longview
GGL,CO,,,Gilgal
GGN,CI,,,Gagnoa
GGO,CI,6.525,-6.521388889,Guiglo
GGR,SO,,,Garoe
GGS,AR,-47.21638889,-69.83916667,Gobernador Gregores
GGT,BS,,,George Town
GGW,US,48.2125,-105.3852778,Glasgow
GHA,DZ,32.38166667,3.799444444,Ghardaia
GHB,BS,25.28444444,-75.66916667,Governors Harbour
GHC,BS,24.75027778,-76.15055556,Great Harbour
GHD,ET,,,Ghimbi
GHE,PA,,,Garachine
GHK,IL,,,Gush Katif
GHM,US,35.83722222,-86.55472222,Centerville
GHN,CN,,,Guanghan
GHT,LY,25.13694444,10.145,Ghat
GHU,AR,-32.99444444,-57.38722222,Gualeguaychu
GIB,GI,36.15111111,-4.650555556,Gibraltar
GIC,AU,,,Boigu Island
GID,BI,,,Gitega
GIF,US,28.06277778,-80.24694444,Winter Haven
GII,GN,11.40083333,-8.813333333,Siguiri
GIL,PK,35.91861111,74.33361111,Gilgit
GIM,GA,,,Miele Mimbale
GIR,CO,4.275277778,-73.20416667,Girardot
GIS,NZ,-37.33666667,177.9783333,Gisborne
GIT,TZ,,,Geita
GIY,ZA,,,Giyani
GIZ,SA,16.90083333,42.58555556,Gizan
GJA,HN,16.44388889,-84.09611111,Guanaja
GJL,DZ,36.79444444,5.873611111,Jijel
GJM,BR,-9.211666667,-64.71833333,Guajara-Mirim
GJR,IS,,,Gjogur
GJT,US,39.12222222,-107.4733333,Grand Junction
GKA,PG,-5.9175,145.3911111,Goroka
GKE,DE,50.96055556,6.041666667,Geilenkirchen
GKH,NP,,,Gorkha
GKL,AU,,,Great Keppel Island
GKN,US,62.15472222,-144.5458333,Gulkana
GKO,GA,,,Kongo-Boumba
GKT,US,35.8575,-82.47138889,Gatlinburg
GLA,GB,55.871944,-4.433056,Glasgow
GLC,ET,,,Geladi
GLD,US,39.37055556,-100.3011111,Goodland
GLE,US,33.65194444,-96.80277778,Gainesville
GLF,CR,8.653888889,-82.81805556,Golfito
GLG,AU,,,Glengyle
GLH,US,33.48277778,-89.01444444,Greenville
GLI,AU,-28.325,151.69,Glen Innes
GLK,SO,,,Galcaio
GLL,NO,,,Gol
GLM,AU,,,Glenormiston
GLN,MA,29.01694444,-9.938611111,Goulimime
GLO,GB,51.89416667,-1.832777778,Gloucester
GLP,PG,,,Gulgubip
GLQ,US,,,Glenallen
GLR,US,45.01361111,-83.29666667,Gaylord
GLS,US,29.26527778,-93.13972222,Galveston
GLT,AU,-22.13027778,151.2227778,Gladstone
GLV,US,64.55027778,-162.9930556,Golovin
GLW,US,37.03166667,-84.04638889,Glasgow
GLX,ID,,,Galela
GLY,AU,38.35638889,-92.31583333,Goldsworthy
GLZ,NL,51.56722222,4.931666667,Breda
GMA,ZR,3.266666667,19.76666667,Gemena
GMB,ET,8.117222222,34.56333333,Gambela
GMC,CO,,,Guerima
GME,BY,52.52694444,31.01666667,Gomel
GMI,PG,,,Gasmata
GMM,CG,,,Gamboma
GMN,NZ,-41.53833333,171.19,Greymouth
GMR,PF,-22.91722222,-133.1127778,Gambier Island
GMT,US,,,Granite Mountain
GMY,DE,,,Rheindahlen
GNA,BY,53.60194444,24.05388889,Grodno
GNB,FR,45.36277778,5.3325,Grenobel
GND,GD,12.00416667,-60.21388889,Grenada
GNE,BE,,,Ghent
GNG,US,42.91694444,-113.235,Gooding
GNI,TW,,,Green Island
GNM,BR,-13.79305556,-41.24888889,Guanambi
GNN,ET,,,Ghinnir
GNR,AR,-37.01666667,-66.4,General Roca
GNS,ID,,,Gunungsitoli
GNT,US,35.16722222,-106.0980556,Grants
GNU,US,,,Goodnews Bay
GNV,US,29.69,-81.72833333,Gainesville
GNZ,BW,-20.3,21.66666667,Ghanzi
GOA,IT,44.413333,8.8375,Genoa
GOB,ET,7.116666667,40.03333333,Goba
GOC,PG,,,Gora
GOE,PG,,,Gonalia
GOH,GL,64.19083333,-50.32194444,Nuuk
GOI,IN,15.38333333,73.81666667,Goa
GOJ,RU,56.23,43.786667,Nizhniy Novgorod
GOK,US,35.85111111,-96.58416667,Guthrie
GOL,US,,,Gold Beach
GOM,CG,,,Goma
GON,US,41.33,-71.955,New London/Groton
GOO,AU,-27.47861111,150.3202778,Goondiwindi
GOP,IN,26.73333333,83.45,Gorakhpur
GOQ,CN,,,Golmud
GOR,ET,,,Gore
GOS,AU,,,Gosford
GOT,SE,57.66,12.291111,Gothenburg
GOU,CM,9.336666667,13.38083333,Garoua
GOV,AU,-11.73083333,136.8180556,Gove
GOW,CA,,,Garrow Lake
GOY,LK,,,Gal Oya
GOZ,BG,43.15166667,25.71194444,Gorna Orechovitsa
GPA,GR,38.14861111,21.42194444,Patrai
GPB,BR,,,Guarapuava
GPI,CO,2.57,-76.10222222,Guapi
GPL,CR,,,Guapiles
GPN,AU,,,Garden Point
GPO,AR,-34.30527778,-62.24111111,General Pico
GPS,EC,,,Galapagos Islands
GPT,US,30.40722222,-88.93,Gulfport
GPZ,US,47.20916667,-92.49027778,Grand Rapids
GQJ,GB,,,Machrihanish
GQQ,US,,,Galion
GRA,CO,,,Gamarra
GRB,US,44.48444444,-87.87027778,Green Bay
GRC,LR,,,Grand Cess
GRD,US,34.24861111,-81.84111111,Greenwood
GRE,US,38.83611111,-88.62166667,Greenville
GRG,AF,,,Gardez
GRH,PG,,,Garuahi
GRI,US,40.9675,-97.69055556,Grand Island
GRJ,ZA,-33.99333333,22.37416667,George
GRL,PG,,,Garasa
GRM,US,,,Grand Marais
GRN,US,42.80583333,-101.825,Gordon
GRO,ES,41.90083333,2.760555556,Gerona
GRP,BR,-10.25638889,-48.87444444,Gurupi
GRQ,NL,53.125,6.583333333,Groningen
GRR,US,42.88083333,-84.47722222,Grand Rapids
GRS,IT,42.75972222,11.07166667,Grosseto
GRT,PK,,,Gujrat
GRV,RU,43.38833333,45.7,Groznyj
GRW,PT,39.0925,-27.97138889,Graciosa Island
GRX,ES,37.18861111,-2.222777778,Granada
GRY,IS,66.55472222,-17.9825,Grimsey
GRZ,AT,46.991067,15.439628,Graz
GSA,MY,,,Long Pasia
GSB,US,35.33916667,-76.03944444,Goldsboro
GSC,AU,,,Gascoyne Junction
GSH,US,41.52611111,-84.20611111,Goshen
GSI,SB,,,Guadalcanal
GSN,AU,15.11888889,145.7291667,Mount Gunson
GSO,US,36.10111111,-78.05888889,"Greensboro, NC"
GSP,US,34.84777778,-81.65,Greenville
GSR,SO,9.516666667,49.08333333,Gardo
GSS,ZA,,,Sabi Sabi
GST,US,58.42527778,-134.2927778,Gustavus
GSU,SD,,,Gedaref
GTA,SB,,,Gatokae
GTB,MY,44.05555556,-74.28055556,Genting
GTC,BS,,,Green Turtle
GTE,AU,-12.025,136.46,Groote Eylandt
GTF,US,47.4825,-110.6294444,Great Falls
GTG,US,,,Grantsburg
GTI,DE,,,Guettin
GTK,MY,,,Sungei Tekai
GTO,ID,0.638333333,122.8522222,Gorontalo
GTS,AU,,,Granites
GTT,AU,,,Georgetown
GTW,CZ,,,Zlin
GTY,US,,,Gettysburg
GUA,GT,14.58333333,-89.47333333,Guatemala
GUB,MX,28.03333333,-113.9333333,Guerrero Negro
GUC,US,38.53388889,-105.0672222,Gunnison
GUD,ML,16.35,-2.4,Goundam
GUE,PG,,,Guriaso
GUF,US,,,Gulf Shores
GUG,PG,,,Guari
GUH,AU,-29.03888889,150.2505556,Gunnedah
GUI,VE,10.57388889,-61.6875,Guiria
GUJ,BR,-21.20833333,-44.79555556,Guaratingueta
GUL,AU,-33.18972222,149.7263889,Goulburn
GUM,GU,13.48361111,144.7969444,Guam
GUO,HN,,,Gualaco
GUP,US,35.51083333,-107.2108333,Gallup
GUQ,VE,9.026944444,-68.24472222,Guanare
GUR,PG,,,Alotau
GUS,US,40.64805556,-85.84805556,Peru
GUT,DE,51.92277778,8.306111111,Guetersloh
GUU,IS,,,Grundarfjordur
GUV,PG,,,Mougulu
GUW,KZ,47.12194444,51.82138889,Atyrau
GUX,IN,,,Guna
GUY,US,36.685,-100.4922222,Guymon
GVA,CH,46.236389,6.107222,Geneva
GVE,US,,,Gordonsville
GVI,PG,,,Green River
GVL,US,34.2725,-82.17,Gainesville
GVP,AU,,,Greenvale
GVR,BR,-17.10472222,-40.01777778,Governador Valadares
GVT,US,33.06777778,-95.93472222,Greenville
GVW,US,,,Grandview
GVX,SE,60.59333333,16.95138889,Gavle
GWA,MM,,,Gwa
GWD,PK,25.23305556,62.32944444,Gwadar
GWE,ZW,,,Gweru
GWL,IN,,,Gwalior
GWN,PG,,,Gnarowein
GWO,US,33.49416667,-89.91555556,Greenwood
GWS,US,,,Glenwood Springs
GWT,DE,54.91325,8.340472,Westerland
GWV,US,,,Glendale
GWY,IE,53.3,-7.058888889,Galway
GXF,YE,15.96361111,48.785,Seiyun
GXG,AO,-6.233333333,15.3,Negage
GXQ,CL,-44.40583333,-71.89388889,Coyhaique
GXX,CM,,,Yagoua
GXY,US,40.43722222,-103.3669444,Greeley
GYA,BO,-9.182222222,-64.65277778,Guayaramerin
GYE,EC,-1.841944444,-78.11611111,Guayaquil
GYI,RW,-0.323333333,29.25916667,Gisenyi
GYL,AU,,,Argyle
GYM,MX,27.96916667,-109.0763889,Guaymas
GYN,BR,-16.629722,-49.226667,Goiania
GYP,AU,,,Gympie
GYR,US,33.42361111,-111.6255556,Goodyear
GZI,AF,,,Ghazni
GZM,MT,,,Gozo
GZO,SB,,,Gizo
GZP,TR,36.2727777778,32.3130555556,Gazipasa
GZT,TR,37.066944,37.388611,Gaziantep
HAA,NO,70.48666667,22.13972222,Hasvik
HAB,US,34.11694444,-86.00194444,Hamilton
HAC,JP,33.115,139.7858333,Hachijojima
HAD,SE,56.69083333,12.82,Halmstad
HAE,US,39.725,-90.55638889,Havasupai
HAF,US,37.51333333,-121.4988889,Half Moon
HAG,NL,,,The Hague
HAI,US,41.95972222,-84.40666667,Three Rivers
HAJ,DE,52.461056,9.685078,Hanover
HAK,CN,19.93333333,110.4566667,Haikou
HAL,NA,,,Halali
HAM,DE,53.630278,9.988333,Hamburg
HAN,VN,21.221192,105.807178,Hanoi
HAO,US,39.36361111,-83.47805556,Hamilton
HAP,AU,,,Long Island
HAR,US,40.19305556,-75.2375,Harrisburg
HAS,SA,27.43972222,41.68611111,Hail
HAT,AU,,,Heathlands
HAU,NO,59.34333333,5.2125,Haugesund
HAV,CU,22.98916667,-81.59083333,Havana
HAW,GB,51.83305556,-3.038888889,Haverfordwest
HAY,US,,,Haycock
HAZ,PG,,,Hatzfeldthaven
HBA,AU,-41.16388889,147.5102778,Hobart
HBC,US,,,Hanus Bay
HBG,US,31.26472222,-88.74722222,Hattiesburg
HBH,US,,,Hobart Bay
HBI,BS,35.65444444,-78.10527778,Harbour Island
HBL,ZA,,,Babelegi
HBN,VN,,,Phu-Bon
HBO,US,,,Humboldt
HBR,US,34.99111111,-98.94861111,Hobart
HBT,SA,27.90083333,45.52805556,Hafr Albatin
HBX,IN,,,Hubli
HCA,US,62.18833333,-158.2252778,Big Spring
HCB,US,,,Shoal Cove
HCC,US,,,Hudson
HCM,SO,,,Eil
HCQ,AU,-17.76611111,127.6697222,Halls Creek
HCR,US,,,Holy Cross
HCW,US,,,Cheraw
HDA,US,,,Hidden Falls
HDB,DE,,,Heidelberg
HDD,PK,25.31805556,68.36611111,Hyderabad
HDE,US,40.45194444,-98.66361111,Holdrege
HDF,DE,53.87861111,14.15222222,Heringsdorf
HDH,US,21.57944444,-157.8027778,Oahu
HDM,IR,34.86944444,48.55055556,Hamadan
HDN,US,40.48524,-107.242309,Hayden - Colorado
HDS,ZA,-23.64555556,31.05027778,Hoedspruit
HDY,TH,6.932777778,100.395,Hat Yai
HEA,AF,34.21,62.22833333,Herat
HEB,MM,,,Henzada
HED,US,,,Herendeen Bay
HEE,US,34.57638889,-89.32416667,Helena
HEH,MM,20.74694444,96.79194444,Heho
HEI,DE,46.01555556,-101.3444444,Heide/Buesum
HEK,CN,,,Heihe
HEL,FI,60.317222,24.963333,Helsinki
HEN,GB,,,Hendon
HEO,PG,,,Haelogo
HER,GR,35.335833,25.173611,Heraklion
HES,US,38.6525,-121.1013889,Hermiston
HET,CN,40.85166667,111.825,Hohhot
HEZ,US,31.61361111,-90.70277778,Natchez
HFA,IL,32.80833333,35.04277778,Haifa
HFD,US,41.73666667,-71.35055556,Hartford
HFE,CN,31.78333333,117.3,Hefei
HFF,US,35.03638889,-78.50277778,Hoffman
HFN,IS,64.29555556,-14.77277778,Hofn
HFS,SE,60.02111111,13.57888889,Hagfors
HFT,NO,70.67972222,23.66861111,Hammerfest
HGA,SO,9.488333333,44.08833333,Hargeisa
HGD,AU,-19.185,144.225,Hughenden
HGH,CN,30.229444,120.434444,Hangzhou
HGL,DE,54.18527778,7.915833333,Helgoland
HGN,TH,19.30166667,97.975,Mae Hong Son
HGO,CI,9.3875,-4.445833333,Korhogo
HGR,US,39.70833333,-76.27361111,Hagerstown
HGT,US,,,Jolon
HGU,PG,-4.173333333,144.2958333,Mount Hagen
HGZ,US,,,Hogatza
HHA,CN,,,Huanghua
HHE,JP,40.55194444,141.4672222,Hachinohe
HHH,US,,,Hilton Head
HHI,US,21.48472222,-157.9602778,Wahiawa
HHN,DE,49.94861111,7.263888889,Hahn
HHQ,TH,12.63027778,99.95333333,Hua Hin
HHR,US,33.92277778,-117.665,Hawthorne
HHZ,PF,,,Hikueru
HIB,US,47.38638889,-91.16111111,Hibbing/Chisholm
HID,AU,-9.413333333,142.29,Horn Island
HIE,US,,,Whitefield
HIG,AU,,,Highbury
HIH,AU,,,Hook Island
HII,US,34.57111111,-113.6419444,Lake Havasu City
HIJ,JP,34.43611111,132.9194444,Hiroshima
HIL,ET,,,Shillavo
HIN,KR,,,Jinju
HIO,US,45.54055556,-121.05,Hillsboro
HIP,AU,,,Headingly
HIR,SB,-8.578333333,160.0516667,Honiara
HIS,AU,,,Hayman Island
HIT,PG,,,Hivaro
HIW,JP,34.36694444,132.4138889,Hiroshima West
HIX,PF,-8.231666667,-138.9891667,Hiva Oa
HJR,IN,24.81972222,79.91833333,Khajuraho
HJT,MN,,,Khujirt
HKB,US,,,Healy Lake
HKD,JP,41.77,140.8219444,Hakodate
HKG,HK,22.308919,113.914603,Hong Kong
HKK,NZ,-41.28638889,170.9852778,Hokitika
HKN,PG,,,Hoskins
HKT,TH,8.1132,98.316872,Phuket
HKV,BG,,,Haskovo
HKY,US,35.74111111,-80.61055556,Hickory
HLA,ZA,-24.06055556,27.92555556,Lanseria
HLB,US,39.34444444,-84.74194444,Batesville
HLC,US,39.38,-98.16861111,Hill City
HLD,CN,49.205,119.825,Hailar
HLF,SE,57.52583333,15.82333333,Hultsfred
HLG,US,40.175,-79.35388889,Wheeling
HLH,CN,,,Ulanhot
HLI,US,,,Hollister
HLJ,LT,,,Shauliaj
HLL,AU,,,Hillside
HLM,US,42.79583333,-85.83805556,Holland
HLN,US,46.60666667,-110.0175,Helena
HLS,AU,-40.66333333,148.2816667,Saint Helens
HLT,AU,-19.64194444,148.9516667,Hamilton
HLU,NC,,,Houailou
HLV,AU,,,Helenvale
HLW,ZA,,,Hluhluwe
HLY,GB,,,Holyhead
HLZ,NZ,-36.13361111,175.3352778,Hamilton
HME,DZ,31.67388889,6.140555556,Hassi Messaoud
HMG,AU,,,Hermannsburg
HMI,CN,,,Hami
HMJ,UA,49.35916667,26.93333333,Khmelnitskiy
HMO,MX,29.09555556,-110.9522222,Hermosillo
HMR,NO,,,Hamar
HMS,US,,,Homeshore
HMT,US,33.73388889,-116.9775,Hemet
HMV,SE,65.80611111,15.08277778,Hemavan
HNA,JP,39.42861111,141.1352778,Morioka
HNB,US,38.24888889,-85.04638889,Huntingburg
HNC,US,,,Hatteras
HNE,US,,,Tahneta
HNG,NC,,,Hienghene
HNH,US,58.09583333,-134.5905556,Hoonah
HNI,PG,,,Heiweni
HNK,AU,,,Hinchinbrooke Island
HNL,US,21.33581,-157.918655,Honolulu
HNM,US,20.79555556,-155.9858333,Hana
HNN,PG,,,Honinabi
HNO,ME,,,Hercegnovi
HNS,US,59.24361111,-134.4766667,Haines
HNX,US,,,Hanna
HNY,CN,,,Hengyang
HOA,KE,,,Hola
HOB,US,32.6875,-102.7830556,Hobbs
HOC,PG,,,Komako
HOD,YE,14.75138889,42.97611111,Hodeidah
HOE,LA,,,Houeisay
HOF,SA,25.28611111,49.48611111,Hofuf
HOG,CU,20.78555556,-75.685,Holguin
HOH,AT,47.38444444,9.699722222,Hohenems/Dornbirn
HOI,PF,-17.93583333,-139.0427778,Hao Island
HOK,AU,-17.66333333,130.6433333,Hooker Creek
HOL,US,,,Holikachuk
HOM,US,59.64555556,-150.5236111,Homer
HON,US,44.385,-97.77166667,Huron
HOO,VN,,,Quanduc
HOP,US,36.67222222,-86.50777778,Hopkinsville
HOQ,DE,50.28861111,11.85472222,Hof
HOR,PT,38.51972222,-27.28388889,Horta
HOS,AR,,,Chos Malal
HOT,US,34.47777778,-92.90388889,Hot Springs
HOU,US,29.978439,-95.342453,Houston
HOV,NO,62.18,6.074166667,Orsta-Volda
HOW,PA,,,Fort Kobbe
HOX,MM,,,Homalin
HOY,GB,,,Hoy
HPA,TO,-18.22305556,-173.6597222,Ha'Apai
HPB,US,61.52361111,-165.8536111,Hooper Bay
HPE,AU,,,Hope Vale
HPH,VN,20.82055556,106.7244444,Haiphong
HPN,US,41.06694444,-72.2925,Westchester County
HPT,US,42.72361111,-92.77388889,Hampton
HPY,US,29.78583333,-93.0475,Baytown
HQM,US,46.97111111,-122.0636111,Hoquiam
HRA,PK,,,Mansehra
HRB,CN,45.61666667,126.25,Harbin
HRE,ZW,-17.931806,31.092847,Harare
HRG,EG,27.17861111,33.80083333,Hughada
HRJ,NP,35.38,-77.26777778,Chaurjhari
HRK,UA,49.92472222,36.29138889,Kharkov
HRL,US,12.2822,-97.757757,Harlingen
HRM,DZ,,,Hassi R Mel
HRN,AU,,,Heron Island
HRO,US,36.26138889,-92.84527778,Harrison
HRR,CO,63.8675,-147.0313889,Herrera
HRS,ZA,,,Harrismith
HRY,AU,,,Henbury
HSB,US,37.81111111,-87.45,Harrisburg
HSC,CN,,,Shaoguan
HSG,JP,,,Saga
HSI,US,40.605,-97.57222222,Hastings
HSL,US,,,Huslia
HSM,AU,-35.33,142.1733333,Horsham
HSP,US,37.95138889,-78.16611111,Hot Springs
HSS,IN,,,Hisar
HST,US,25.48833333,-79.61638889,Homestead
HSV,US,34.63694444,-85.225,Huntsville
HTA,RU,52.02666667,113.305,Chita
HTB,GP,,,Terre-De-Bas
HTF,GB,,,Hatfield
HTG,RU,,,Hatanga
HTH,US,38.54416667,-117.3658333,Hawthorne
HTI,AU,,,Hamilton Island
HTL,US,44.35972222,-83.32888889,Houghton
HTN,CN,37.04,79.86333333,Hotan
HTO,US,40.95916667,-71.74833333,East Hampton
HTR,JP,24.05833333,123.8038889,Hateruma
HTS,US,38.36666667,-81.44222222,Huntington
HTU,AU,,,Hopetoun
HTV,US,,,Huntsville
HTW,US,,,Chesapeake
HTY,TR,36.362778,36.282222,Hatay
HTZ,CO,6.153333333,-70.23833333,Hato Corozal
HUB,AU,,,Humbert River
HUC,PR,,,Humacao
HUD,US,,,Humboldt
HUE,ET,,,Humera
HUF,US,39.45138889,-86.6925,Terre Haute
HUG,GT,,,Huehuetenango
HUH,PF,-15.31166667,-150.9713889,Huahine Island
HUI,VN,16.40055556,107.7063889,Hue
HUJ,US,,,Hugo
HUK,BW,,,Hukuntsi
HUL,US,46.12444444,-66.20777778,Houlton
HUM,US,29.56638889,-89.33972222,Houma
HUN,TW,24.02333333,121.61,Hualien
HUQ,LY,29.13333333,15.95,Houn
HUS,US,66.03888889,-153.7355556,Hughes
HUT,US,38.06527778,-96.13944444,Hutchinson
HUU,PE,-8.121388889,-75.79555556,Huanuco
HUV,SE,61.76833333,17.08055556,Hudiksvall
HUX,MX,15.77527778,-95.7375,Huatulco
HUY,GB,53.57444444,-0.349166667,Humberside
HUZ,CN,,,Huizhou
HVA,MG,,,Analalava
HVB,AU,-24.68166667,152.88,Hervey Bay
HVD,MN,47.95416667,91.62722222,Khovd
HVE,US,38.41777778,-109.2961111,Hanksville
HVG,NO,71.00972222,25.98361111,Honningsvag
HVK,IS,,,Holmavik
HVM,IS,,,Hvammstangi
HVN,US,41.26361111,-71.11333333,New Haven
HVR,US,48.54277778,-108.2377778,Havre
HVS,US,34.40305556,-79.88083333,Hartsville
HWA,PG,,,Hawabango
HWD,US,37.65888889,-121.8783333,Hayward
HWI,US,,,Hawk Inlet
HWK,AU,,,Hawker
HWN,ZW,-17.36611111,27.00805556,Hwange National Park
HWO,US,,,Hollywood
HXX,AU,-33.46861111,144.8297222,Hay
HYA,US,41.66916667,-69.71972222,Hyannis
HYC,GB,,,High Wycombe
HYD,IN,17.24055556,78.42888889,Hyderabad
HYF,PG,,,Hayfields
HYG,US,,,Hydaburg
HYL,US,,,Hollis
HYN,CN,,,Huangyan
HYR,US,46.02527778,-90.55583333,Hayward
HYS,US,38.84222222,-98.72694444,Hays
HYV,FI,60.65444444,24.88111111,Hyvinkaa
HZB,FR,50.61638889,2.64,Hazebrouck
HZG,CN,,,Hanzhong
HZK,IS,65.9525,-16.57416667,Husavik
HZL,US,40.98666667,-74.00527778,Hazleton
HZV,ZA,,,Hazyview
IAA,RU,,,Igarka
IAG,US,43.10722222,-77.05388889,Niagara Falls
IAM,DZ,28.05138889,9.642777778,In Amenas
IAN,US,,,Kiana
IAQ,IR,29.83972222,50.27222222,Bahregan
IAR,RU,57.56,40.15666667,Yaroslavl
IAS,RO,47.178889,27.62,Iasi
IAU,PG,,,Iaura
IBA,NG,7.360833333,3.978055556,Ibadan
IBE,CO,4.421388889,-74.86638889,Ibague
IBI,PG,,,Iboki
IBO,MZ,,,Ibo
IBP,PE,,,Iberia
IBZ,ES,38.872858,1.373117,Ibiza
ICA,VE,,,Icabaru
ICI,FJ,,,Cicia
ICK,SR,,,Nieuw Nickerie
ICL,US,40.72194444,-94.97361111,Clarinda
ICO,PH,,,Sicogon Island
ICR,CU,20.68861111,-74.46861111,Nicaro
ICT,US,37.64972222,-96.56694444,Wichita
ICY,US,,,Icy Bay
IDA,US,43.51361111,-111.9294444,Idaho Falls
IDB,SE,61.86972222,12.68944444,Idre
IDF,ZR,,,Idiofa
IDG,US,,,Ida Grove
IDI,US,40.63222222,-78.89472222,Indiana
IDK,AU,,,Indulkana
IDN,PG,,,Indagen
IDO,BR,,,Santa Isabel Do Morro
IDP,US,37.15833333,-94.22166667,Independence
IDR,IN,22.72333333,75.80527778,Indore
IDY,FR,46.71861111,-1.608888889,Ile D'Yeu
IEG,PL,52.13861111,15.79861111,Zielona Gora
IEJ,JP,26.7225,127.7869444,Iejima
IEV,UA,50.344722,30.893333,Kiev
IFA,US,42.47055556,-92.73027778,Iowa Falls
IFF,AU,,,Iffley
IFJ,IS,66.05805556,-22.86472222,Isafjordur
IFL,AU,-16.44138889,146.0116667,Innisfail
IFN,IR,32.75083333,51.86277778,Isfahan
IFO,UA,48.88388889,24.68444444,Ivano-Frankovsk
IFP,US,35.15583333,-113.4405556,Laughlin Bullhead City
IGA,BS,20.975,-72.33333333,Inagua
IGB,AR,,,Ingeniero Jacobacci
IGD,TR,39.983056,43.866389,Igdir
IGE,GA,,,Iguela
IGG,US,59.32388889,-154.0983333,Igiugig
IGH,AU,,,Ingham
IGM,US,35.25944444,-112.0619444,Kingman
IGN,PH,8.148611111,124.2097222,Iligan
IGO,CO,7.676944444,-75.31722222,Chigorodo
IGR,AR,-24.26277778,-53.52666667,Iguazu
IGU,BR,-25.600278,-54.485,Iguassu Falls
IHA,JP,,,Niihama
IHN,YE,,,Qishn
IHO,MG,-21.6,46.16666667,Ihosy
IHU,PG,,,Ihu
IIA,IE,,,Inishmaan
IIN,JP,,,Nishino-Omote
IIS,PG,,,Nissan Island
IJK,RU,,,Izhevsk
IJU,BR,,,Ijui
IJX,US,39.77444444,-89.76194444,Jacksonville
IKB,US,36.22277778,-80.90166667,Wilkesboro
IKI,JP,,,Iki
IKK,US,41.07138889,-86.15388889,Kankakee
IKL,ZR,,,Ikela
IKO,US,52.94138889,-167.1511111,Nikolski
IKP,AU,,,Inkerman
IKS,RU,71.695,128.9,Tiksi
IKT,RU,52.26666667,104.395,Irkutsk
ILA,ID,,,Illaga
ILB,BR,,,Ilha Solteira
ILC,PE,,,Ilo
ILE,US,31.06722222,-96.17111111,Killeen
ILF,CA,,,Ilford
ILG,US,39.67861111,-74.39361111,Wilmington
ILH,DE,,,Illisheim
ILI,US,59.75555556,-153.0825,Iliamna
ILK,MG,,,Ilaka
ILL,US,,,Willmar
ILM,US,34.27055556,-76.0975,Wilmington
ILN,US,39.42777778,-82.20805556,Wilmington
ILO,PH,10.83277778,122.4933333,Iloilo
ILP,NC,,,Ile Des Pins
ILR,NG,8.44,4.493888889,Ilorin
ILU,KE,-1.081111111,38.0675,Kilaguni
ILX,PG,,,Ileg
ILY,GB,55.68333333,-5.740277778,Islay
ILZ,SK,49.23333333,18.61361111,Zilina
IMA,PG,,,Iamalele
IMB,GY,,,Imbaimadai
IMD,PG,,,Imonda
IMF,IN,24.76416667,93.89944444,Imphal
IMG,MZ,,,Inhaminga
IMI,MH,,,Ine Island
IMK,NP,,,Simikot
IML,US,40.51027778,-100.38,Imperial
IMM,US,26.43361111,-80.59888889,Immokalee
IMN,PG,,,Imane
IMO,CF,5.05,25.15,Zemio
IMP,BR,-4.469444444,-46.54166667,Imperatriz
IMT,US,45.81833333,-87.88555556,Iron Mountain
IMZ,AF,,,Nimroz
INA,RU,,,Inta
INB,BZ,,,Independence
INC,CN,,,Yinchuan
IND,US,39.710491,-86.299362,Indianapolis
INE,MZ,,,Chinde
INF,DZ,19.56888889,5.748888889,In Guezzam
ING,AR,,,Lago Argentino
INH,MZ,-22.13333333,35.41666667,Inhambane
INI,RS,43.33722222,21.85361111,Nis
INJ,AU,,,Injune
INK,US,31.77972222,-102.7983333,Wink
INL,US,48.56555556,-92.59805556,International Falls
INM,AU,,,Innamincka
INN,AT,47.260219,11.343964,Innsbruck
INO,ZR,-0.05,18.28333333,Inongo
INQ,IE,,,Inisheer
INS,US,36.58694444,-114.3266667,Indian Springs
INT,US,36.13361111,-79.77805556,Winston-Salem
INU,NR,-0.518611111,166.9188889,Nauru Island
INV,GB,57.5425,-3.9525,Inverness
INW,US,35.02166667,-109.2775,Winslow
INX,ID,,,Inanwatan
INY,ZA,,,Inyati
INZ,DZ,27.25361111,2.510833333,In Salah
IOA,GR,39.69722222,20.82194444,Ioannina
IOK,PG,,,Iokea
IOM,GB,54.08333333,-3.376666667,Isle Of Man
ION,CG,1.583333333,18.05,Impfondo
IOP,PG,,,Ioma
IOR,IE,,,Inishmore
IOS,BR,-13.185,-38.96666667,Ilheus
IOU,NC,,,Ile Ouen
IOW,US,41.63972222,-90.45194444,Iowa City
IPA,VU,,,Ipota
IPC,CL,-26.83527778,-108.5783333,Osterinseln
IPE,PH,,,Ipil
IPG,BR,,,Ipiranga
IPH,MY,4.569166667,101.0930556,Ipoh
IPI,CO,0.861666667,-76.32833333,Ipiales
IPL,US,32.82916667,-114.3283333,Imperial
IPN,BR,-18.52944444,-41.51222222,Ipatinga
IPT,US,41.24138889,-75.07833333,Williamsport
IPU,BR,,,Ipiau
IPW,GB,,,Ipswich
IQM,CN,,,Qiemo
IQN,CN,,,Qingyang
IQQ,CL,-19.46472222,-69.81861111,Iquique
IQT,PE,-2.215277778,-72.69138889,Iquitos
IRA,SB,,,Kirakira
IRB,US,,,Iraan
IRC,US,,,Circle
IRD,BD,24.1525,89.04916667,Ishurdi
IRE,BR,-10.66,-40.14722222,Irece
IRG,AU,35.20277778,48.66666667,Lockhart River
IRI,TZ,,,Iringa
IRJ,AR,-28.61944444,-65.20416667,La Rioja
IRK,US,40.09333333,-91.45527778,Kirksville
IRN,HN,,,Iriona
IRO,CF,10.23333333,22.71666667,Birao
IRP,ZR,2.826666667,27.58805556,Isiro
IRS,US,41.81333333,-84.56111111,Sturgis
ISA,AU,-19.33611111,139.4886111,Mount Isa
ISB,PK,33.61666667,73.09861111,Islamabad
ISC,GB,40.56166667,-80.92277778,Isles Of Scilly
ISD,CO,,,Iscuande
ISE,TR,,,Isparta
ISG,JP,24.34472222,124.1869444,Ishigaki
ISH,IT,,,Ischia
ISI,AU,,,Isisford
ISJ,MX,,,Isla Mujeres
ISK,IN,,,Nasik
ISL,US,,,Isabel Pass
ISM,US,28.28972222,-80.56305556,Kissimmee
ISN,US,48.17777778,-102.3577778,Williston
ISO,US,35.33138889,-76.39138889,Kinston
ISP,US,40.795,-72.9,Islip
ISQ,US,45.97444444,-85.82833333,Manistique
ISS,US,,,Wiscasset
IST,TR,40.89833333,29.30916667,Istanbul
ISU,IQ,,,Sulaymaniyah
ISW,US,44.36027778,-88.16111111,Wisconsin Rapids
ITA,BR,-2.873611111,-57.51833333,Itacoatiara
ITB,BR,-3.757777778,-55.99916667,Itaituba
ITE,BR,,,Itubera
ITH,US,42.49111111,-75.54138889,Ithaca
ITI,BR,,,Itambacuri
ITK,PG,,,Itokama
ITN,BR,-13.18972222,-38.70805556,Itabuna
ITO,US,19.72,-154.9516667,Hilo
ITQ,BR,-28.82694444,-55.46333333,Itaqui
IUE,NU,-18.92222222,-168.0733333,Niue
IUL,ID,,,Ilu
IUM,CA,,,Summit Lake
IUS,PG,,,Inus
IVA,MG,,,Ambanja
IVC,NZ,-45.585,168.32,Invercargill
IVG,ME,,,Ivangrad
IVH,US,,,Ivishak
IVL,FI,68.61083333,27.41388889,Ivalo
IVO,CO,,,Chivolo
IVR,AU,-28.11166667,151.145,Inverell
IVW,AU,,,Inverway
IWA,RU,33.30777778,-110.3447222,Ivanovo
IWD,US,46.52722222,-89.86861111,Ironwood
IWJ,JP,34.67638889,131.7902778,Iwami
IWK,JP,,,Iwakuni
IWO,JP,24.78416667,141.3225,Iwo Jima
IXA,IN,23.87694444,91.24,Agartala
IXB,IN,26.68333333,88.33333333,Bagdogra
IXC,IN,30.66666667,76.78333333,Chandigarh
IXD,IN,25.44,81.73333333,Allahabad
IXE,IN,12.96194444,74.88972222,Mangalore
IXG,IN,15.85833333,74.6175,Belgaum
IXH,IN,,,Kailashahar
IXI,IN,27.29055556,94.09666667,Lilabari
IXJ,IN,32.69166667,74.83666667,Jammu
IXK,IN,21.315,70.26888889,Keshod
IXL,IN,,,Leh
IXM,IN,9.835,78.08805556,Madurai
IXN,IN,,,Khowai
IXP,IN,32.23333333,75.63333333,Pathankot
IXQ,IN,24.13166667,91.81333333,Kamalpur
IXR,IN,23.31416667,85.32083333,Ranchi
IXS,IN,24.91166667,92.98,Silchar
IXT,IN,,,Pasighat
IXU,IN,19.86444444,75.3975,Aurangabad
IXV,IN,,,Along
IXW,IN,,,Jamshedpur
IXY,IN,23.11166667,70.10138889,Kandla
IXZ,IN,11.64666667,92.735,Port Blair
IYK,US,35.65861111,-116.1705556,Inyokern
IZM,TR,38.28916667,27.155,Izmir
IZO,JP,35.41361111,132.89,Izumo
IZT,MX,16.44861111,-94.90638889,Ixtepec
JAA,AF,34.40027778,70.49722222,Jalalabad
JAB,AU,,,Jabiru
JAC,US,43.60722222,-109.2625,"Jackson, WY"
JAD,AU,-31.9025,115.8811111,Jandakot
JAF,LK,9.791944444,80.06305556,Jaffna
JAG,PK,28.28333333,68.45,Jacobabad
JAH,FR,,,Aubagne
JAI,IN,26.82416667,75.80222222,Jaipur
JAK,HT,,,Jacmel
JAL,MX,19.475,-95.2025,Jalapa
JAM,BG,,,Jambol
JAN,US,32.31111111,-89.92416667,Jackson-evers
JAQ,PG,,,Jacquinot Bay
JAS,US,30.88555556,-93.96527778,Jasper
JAT,MH,,,Jabat
JAU,PE,-10.21972222,-74.53138889,Jauja
JAV,GL,69.24305556,-50.94305556,Jakobshavn
JAX,US,30.49136,-81.683254,"Jacksonville, FL"
JBK,US,,,Berkeley
JBR,US,35.83166667,-89.35361111,Jonesborough
JBS,US,,,Pleasanton
JCB,BR,-26.82722222,-50.44833333,Joacaba
JCH,GL,,,Christianshaab
JCK,AU,-19.33166667,141.7216667,Julia Creek
JCM,BR,-10.83611111,-39.44694444,Jacobina
JCN,KR,,,Incheon
JCR,BR,-5.764722222,-56.22416667,Jacareacanga
JCT,US,30.51055556,-98.23694444,Junction
JCY,US,,,Johnson
JDA,US,,,John Day
JDF,BR,-20.20694444,-42.61444444,Juiz De Fora
JDH,IN,26.25083333,73.04861111,Jodhpur
JDN,US,47.32861111,-105.0475,Jordan
JDO,BR,-6.781666667,-38.72833333,Juazeiro Do Norte
JDY,US,,,Downey
JDZ,CN,,,Jingdezhen
JED,SA,21.679444,39.156667,Jeddah
JEE,HT,,,Jeremie
JEF,US,38.59111111,-91.84388889,Jefferson City
JEG,GL,68.72166667,-51.21527778,Egedesminde
JEJ,MH,,,Jeh
JEM,US,,,Emeryville
JEQ,BR,-12.12277778,-39.92805556,Jequie
JER,GB,49.207947,-2.195508,Jersey
JEV,FR,,,Evry Heliport
JFM,AU,,,Fremantle
JFN,US,,,Jefferson
JFR,GL,62.01472222,-48.32916667,Frederikshaben
JGA,IN,22.46333333,70.01166667,Jamnagar
JGB,IN,,,Jagdalpur
JGE,KR,,,Geoje
JGN,CN,39.86,98.33666667,Jiayuguan
JGO,GL,,,Godhavn
JGR,GL,,,Gronnedal
JHB,MY,1.640555556,103.6702778,Johor Bahru
JHG,CN,21.975,100.76,Jinghong
JHM,US,,,Kapalua
JHQ,AU,,,Shute Harbour
JHS,GL,66.95111111,-52.27083333,Holsteinsborg
JHW,US,42.15333333,-78.74222222,Jamestown
JIA,BR,-10.58055556,-57.29833333,Juina
JIB,DJ,11.547331,43.159481,Djibouti
JIJ,ET,,,Jijiga
JIL,CN,,,Jilin
JIM,ET,7.670833333,36.80916667,Jimma
JIN,UG,0.45,33.2,Jinja
JIP,EC,,,Jipijapa
JIR,NP,,,Jiri
JIU,CN,29.47666667,115.8,Lushan
JIW,PK,25.06777778,61.80527778,Jiwani
JJI,PE,-6.830277778,-75.27083333,Juanjui
JJN,CN,,,Jinjiang
JJU,GL,,,Julianehab
JKG,SE,57.75833333,14.06916667,Jonkoping
JKH,GR,38.34333333,26.14055556,Chios
JKR,NP,,,Janakpur
JKT,ID,-5.7325,106.8863889,Jakarta
JKV,US,,,Jacksonville
JLA,US,,,Cooper Landing
JLD,SE,,,Landskrona
JLH,US,,,Arlington
JLN,US,37.15166667,-93.50194444,Joplin
JLO,IT,,,Jesolo
JLP,FR,,,Juan Les Pins
JLR,IN,23.18333333,80.06027778,Jabalpur
JLS,BR,,,Jales
JMB,AO,,,Jamba
JMC,US,,,Sausalito
JMH,US,,,Schaumburg
JMK,GR,37.435128,25.348103,Mykonos
JMO,NP,,,Jomsom
JMS,US,46.92972222,-97.32194444,Jamestown
JMU,CN,46.84,130.4616667,Jiamusi
JNA,BR,,,Januaria
JNB,ZA,-26.139167,28.246,Johannesburg
JNG,CN,,,Jining
JNI,AR,-33.45888889,-59.06555556,Junin
JNN,GL,,,Nanortalik
JNP,US,,,Newport Beach
JNS,GL,,,Narsaq
JNU,US,58.35472222,-133.4238889,Juneau
JNX,GR,,,Naxos
JNZ,CN,,,Jinzhou
JOE,FI,62.65888889,29.62444444,Joensuu
JOG,ID,-6.213333333,110.4319444,Yogyakarta
JOH,ZA,,,Port Saint Johns
JOI,BR,-25.77694444,-47.2025,Joinville
JOK,RU,,,Yoshkar-Ola
JOL,PH,6.053055556,121.0097222,Jolo
JOM,TZ,-8.65,34.8,Njombe
JON,UM,16.73055556,-168.4647222,Johnston Island
JOP,PG,,,Josephstaal
JOR,US,,,Orange
JOS,NG,9.639722222,8.869166667,Jos
JOT,US,41.5175,-87.82444444,Joliet
JPA,BR,-6.854166667,-33.05138889,Joao Pessoa
JPD,US,,,Pasadena
JPR,BR,-9.129444444,-60.15333333,Jiparana
JQE,PA,7.518055556,-77.85027778,Jaque
JRH,IN,26.73333333,94.18333333,Jorhat
JRK,GL,,,Arsuk
JRN,BR,-9.694166667,-57.51055556,Juruena
JRO,TZ,-3.429406,37.074461,Kilimanjaro
JRS,IL,31.86472222,35.21916667,Jerusalem
JSA,IN,,,Jaisalmer
JSD,US,,,Stratford
JSH,GR,35.21611111,26.10111111,Sitia
JSI,GR,39.1775,23.50361111,Skiathos
JSM,AR,-43.94166667,-69.56666667,Jose De San Martin
JSO,SE,31.86916667,-94.78277778,Sodertalje
JSR,BD,23.18361111,89.16083333,Jessore
JSS,GR,,,Spetsai
JST,US,40.31611111,-77.16611111,Johnstown
JSU,GL,65.41222222,-51.06083333,Sukkertoppen
JSY,GR,37.42305556,24.95,Syros Island
JTO,US,,,Thousand Oaks
JTR,GR,36.399169,25.479333,Thira
JTY,GR,,,Astypalaia Island
JUA,BR,,,Juara
JUB,SS,,,Juba
JUI,DE,,,Juist
JUJ,AR,-23.60722222,-64.90222222,Jujuy
JUL,PE,-14.53305556,-69.84222222,Juliaca
JUM,NP,,,Jumla
JUN,AU,,,Jundah
JUO,CO,,,Jurado
JUR,AU,,,Jurien Bay
JUT,HN,,,Juticalpa
JUV,GL,72.79,-55.86944444,Upernavik
JUZ,CN,,,Quzhou
JVA,MG,,,Ankavandra
JVI,US,,,Manville
JVL,US,42.62,-88.95861111,Janesville
JWA,BW,-23.4,24.66666667,Jwaneng
JXN,US,42.26027778,-83.53972222,Jackson
JYV,FI,62.40083333,25.67277778,Jyvaskyla
JZH,CN,,,Song Pan
KAA,ZM,-9.783333333,31.13333333,Kasama
KAB,ZW,-15.48055556,28.885,Kariba
KAC,SY,37.03055556,41.205,Kameshli
KAD,NG,10.69583333,7.320277778,Kaduna
KAE,US,,,Kake
KAF,PG,,,Karato
